"","CityGTD","DistKM","fake","long","lat.x","name","X","lon","lat.y"
"74","gnjilane",0.0442031006222659,1,21.46986,42.46045,"gjilan",946,21.469323,42.4604343
"112","larba",0.0748515059158908,1,3.15434,36.56471,"algiers",822,3.153889,36.565278
"37","clark",0.0916134881059147,1,120.58,15.67,"paniqui",1577,120.5804721,15.6693099
"99","khashrod",0.140687335480377,1,62.79055,31.52919,"khash",276,62.7897132,31.528143
"70","garbahaareey",0.270442883066046,1,42.22091,3.32892,"garbahaarrey",594,42.2189781,3.3304072
"104","kurgantyube",0.300491373905619,1,68.78186,37.83399,"qurghonteppa",772,68.780278,37.836389
"51","deiralbalah",0.324234883603254,1,31.37,31.05,"talkha",1726,31.3709738,31.0528017
"151","ouzra",0.369870895636517,1,4.05,36.72,"tiziwazu",825,4.05,36.716667
"40","comalpa",0.514603571985082,1,-90.88,14.73,"guatemalacity",1312,-90.883333,14.733333
"120","lubumbashi",0.525852291068185,1,27.48,-11.66,"lubumbashi",415,27.479444,-11.664722
"88","jhenaidah",0.567304097062353,1,89.18,23.55,"jhanaydah",1217,89.1753614,23.5528198
"86","jaffa",0.589641805929643,1,34.75224,32.05043,"telaviv",560,34.758355,32.049357
"52","deirmawas",0.632604991422024,1,30.84662,27.64176,"dayrmawas",1259,30.8510692,27.6376503
"23","basilan",0.7469783151704,1,122.0168,6.6909,"begang",588,122.0232408,6.6929389
"187","sanvincentedechucuri",0.82420524316372,1,-73.42,6.89,"sanvicentedechucuri",1247,-73.416667,6.883333
"172","ramna",0.851538800586483,1,90.41426,23.73625,"dhaka",1220,90.408333,23.741667
"133","meigh",0.864065299529461,1,-2.53,53.5,"manchester",1718,-2.518727,53.496115
"121","maalot",0.8921800634,1,35.26667,33.01667,"haifa",939,35.276017,33.015026
"186","santaigo",1.02840740104634,1,-70.64,-33.46,"santiago",849,-70.641997,-33.4691199
"46","dakok",1.03094360492528,1,42.98845,36.86709,"dihuk",930,43,36.866667
"213","walvisbay",1.06799432799345,1,14.5,-22.95,"walvisbay",1639,14.508056,-22.956111
"170","qalqilyahh",1.17205097455051,1,34.97,32.2,"telaviv",941,34.981513,32.196015
"3","achin",1.18398899405381,1,70.7,34.12,"acin",1121,70.690083,34.1267756
"142","naurang",1.18715665707056,1,70.77,32.82,"sarainaurang",1005,70.7825947,32.8187789
"128","marwar",1.34437138897212,1,68.37,25.38,"hyderabad",1509,68.3776509,25.3899483
"68","faisalabad",1.38746943998962,1,70.58,37.13,"fayzabad",1134,70.579722,37.1175
"12","alkutum",1.51804243220125,1,24.65,14.2,"kutum",326,24.6638251,14.2025174
"96","kazakh",1.54279639152753,1,45.35,41.1,"qazax",835,45.366111,41.093333
"210","villavictoria",1.70268974318201,1,-77,-12.08,"lima",356,-77.0079141,-12.0667244
"134","merliotcity",1.78631566493734,1,-89.23,13.68,"sansalvador",1286,-89.2327326,13.6959232
"35","chiawelo",1.80131464538195,1,27.84,-26.28,"johannesburg",1623,27.857517,-26.2838695
"145","nelliyadi",1.81130210722377,1,80.17,9.82,"valvedditturai",1661,80.1653996,9.8042724
"71","garmser",1.85969767891128,1,64.1934,31.13231,"markazehukumatedarweshan",792,64.212898,31.132511
"196","taluqan",1.89943994468605,1,69.53,36.73,"taloqan",507,69.516667,36.716667
"181","sanmiguelito",2.14118020093153,1,-89.2,13.73,"sansalvador",1293,-89.189527,13.713577
"188","saopaolo",2.29759828085716,1,-46.63,-23.53,"saopaulo",409,-46.6333094,-23.5505199
"28","butumbura",2.36731452083712,1,29.35,-3.37,"bujumbura",657,29.366667,-3.383333
"209","uppuveli",2.38528982592566,1,81.22,8.58,"trincomalee",1675,81.2195241,8.6015618
"31","cerrnice",2.48142165402701,1,21.43361,42.40194,"partesh",563,21.4201362,42.4219233
"79","howrah",2.68809035259151,1,88.237778,22.592222,"kolkata",433,88.2636394,22.5957689
"11","alkutubdia",2.79485575498918,1,91.86,21.84,"kutubdia",408,91.855002,21.8151944
"194","siasiisland",3.00642698863192,1,120.8472,5.5572,"kungtad",1598,120.8613785,5.5340204
"33","challapampa",3.11052287738271,1,-71.53,-16.39,"arequipa",737,-71.5590423,-16.3879749
"201","thandikulam",3.12344872471641,1,80.49,8.76,"vavuniya",1670,80.4827074,8.7872932
"117","lemorieta",3.1529460835587,1,-2.73333,43.21667,"amorebieta",765,-2.7712529,43.210664
"190","saripul",3.26242221471861,1,66.05,35.7,"tagawbay",637,66.0463534,35.6707473
"178","sanbuenaventura",3.33346964265059,1,-88.38,13.51,"jucuapa",532,-88.383412,13.5399448
"76","highfield",3.42962695024449,1,-4.7,55.75,"glasgow",1106,-4.691252,55.719594
"135","misamisoriental",3.4812802118331,1,124.643056,8.481111,"cagayandeoro",1044,124.6219592,8.5045558
"97","keremshalom",3.51842793465153,1,34.2826,31.25997,"shukatassufi",452,34.284559,31.228281
"53","derriaghy",3.65008936636222,1,-6.06,54.52,"lisburn",1103,-6.01799,54.54187
"85","ispaster",3.67790608532154,1,-2.5,43.37,"lekeitio",1644,-2.5439819,43.3618594
"203","timezrit",3.86817351922309,1,4.77361,36.65,"elhed",832,4.7749158,36.6151583
"191","seraikelakharsawan",3.94272167606214,1,86.05,22.85,"jamshedpur",441,86.0121573,22.8561261
"29","camlough",3.96288672913109,1,-6.35,54.18,"newry",1101,-6.41069,54.18044
"148","obe",4.03245017952736,1,63.14,34.39,"awbeh",1155,63.176389,34.369722
"136","mohammedia",4.42351768115611,1,3.18,36.72,"algiers",1194,3.133333,36.733333
"72","ghaziyeh",4.66182652787978,1,35.37564,33.55993,"beirut",953,35.3663175,33.5186304
"185","santacruzmichapa",4.71906315561118,1,-88.94,13.73,"sansalvador",354,-88.9820696,13.7413116
"182","sanmigueluspantan",4.82310306956066,1,-90.83,15.38,"uspantan",358,-90.796127,15.35137
"215","watapur",4.98872628254389,1,71.15,34.87,"asadabad",644,71.1273981,34.9109308
"78","houla",5.01006615449971,1,35.57,33.21,"qiryatshemona",701,35.5162739,33.2090575
"184","sanpedrodelnorte",5.1002826893983,1,-86.87,13.23,"cincopinos",985,-86.8778567,13.2754541
"111","langlaagte",5.10176085159881,1,28.04,-26.19,"johannesburg",1063,27.99065,-26.20176
"45","dair",5.17807577252596,1,50.61,26.24,"almuharraq",837,50.624,26.285
"39","cloughmills",5.18586476702013,1,-6.41087,55.011,"dunloy",778,-6.33254,54.99904
"84","hungduan",5.40451576779477,1,121.016042,16.879661,"hapao",1582,121,16.833333
"165","pitayo",5.5399042379524,1,-76.33,2.79,"jambalo",1243,-76.3,2.75
"95","kanju",5.61438451664788,1,72.36,34.78,"mingaora",1002,72.3459123,34.8292567
"180","sanlorenzodam",5.69948400387795,1,-89.76,13.98,"atiquizaya",425,-89.7837404,14.0260037
"60","dulje",5.84387499186267,1,20.82194,42.38361,"peqan",1394,20.8821146,42.4115106
"17","arnoun",6.04344725664323,1,35.59,33.34,"marjuyun",699,35.525878,33.3315082
"30","catembe",6.09313735664079,1,32.57,-25.95,"maputo",1423,32.557362,-26.003799
"115","lascondes",6.12137660151422,1,-70.58024,-33.46069,"santiago",848,-70.55,-33.411667
"110","lamphu",6.28660421937684,1,101.82,6.43,"narathiwat",1692,101.8128252,6.3736079
"54","dhand",6.38238014372795,1,73.95,31.2,"baipheru",1493,73.9003415,31.2386314
"55","dhand",6.38238014372795,1,73.95,31.2,"bhaipheru",1493,73.9003415,31.2386314
"36","chrea",6.47479876257831,1,2.8277,36.47004,"algiers",1184,2.876389,36.426944
"98","kfarazza",6.50020283074548,1,34.46667,31.5,"gaza",1391,34.532291,31.483416
"122","macachacra",6.50816770809633,1,-74.25,-12.95,"huanta",1546,-74.2083943,-12.9923771
"205","tsakane",6.65589901244563,1,28.37,-26.29,"johannesburg",1638,28.366667,-26.35
"158","parakkadavu",6.97421989156168,1,76.4,10.2,"kochi",1349,76.336593,10.2055089
"114","lasana",7.01665542708129,1,75.583333,24.933333,"rawatbhata",1343,75.559693,24.8737718
"195","sidibakhti",7.11159534263231,1,-1.02,35.54,"alamriyah",826,-1.0143426,35.6039298
"102","khlongtoey",7.19106381021074,1,100.53,13.67,"bangkok",1690,100.583889,13.708056
"140","nancefield",7.34151612009565,1,27.84,-26.28,"johannesburg",1633,27.90645,-26.25169
"1","abdulkhel",7.34208211066352,1,70.7,34.12,"acin",496,70.6961111,34.0538889
"58","dickwella",7.38702161150289,1,80.7911,6.024,"tangalla",1072,80.73323,5.990751
"107","lamerced",7.54783511047869,1,-75.34,-11.13,"sanramon",742,-75.335,-11.061944
"171","ramain",7.57275528355912,1,124.29,8,"marawi",1597,124.35,7.966667
"61","eastchamparan",7.68035687308541,1,84.91,26.66,"motihari",242,84.8567932,26.6098139
"150","orlando",7.70290733254015,1,27.8725,-26.1625,"johannesburg",1634,27.9117185,-26.22235
"63","elcentro",7.97949885767728,1,-74.35,4.62,"bogota",1233,-74.297333,4.570868
"26","braachit",8.18883309349909,1,35.40251,33.11023,"ainebel",1402,35.4439843,33.1753011
"211","vosloorus",8.34898017883702,1,28.13,-26.33,"johannesburg",263,28.2075,-26.358333
"143","nawabad",8.96210589282269,1,68.79213,33.14641,"zarahsharan",1153,68.7199688,33.1997675
"189","saqlawiah",9.01810951366698,1,43.77,33.36,"alfallujah",308,43.683333,33.396389
"155","palaly",9.12058740980095,1,80.17,9.82,"valvedditturai",1084,80.0898085,9.7982377
"146","nembecreek",9.26051832382722,1,7,4.78,"portharcourt",1473,7.049861,4.8471654
"38","clogher",9.45028153483569,1,-7.3,54.38333,"fivemiletown",1102,-7.16452,54.4143
"8","alfonsobonillaaragon",9.48869640281836,1,-76.3,3.54,"cali",1229,-76.3854001,3.5398319
"18","awjah",9.82643749058733,1,43.68,34.61,"tikrit",927,43.733056,34.533056
"217","whitecross",10.0040062468196,1,-6.35,54.18,"newry",1721,-6.48616,54.22129
"4","adekar",10.2697660707345,1,4.77,36.65,"timazrit",813,4.669073,36.6942103
"65","elnispero",10.2905187647685,1,-86.28,13.53,"telpaneca",711,-86.234245,13.4484734
"116","laudium",10.4493902402659,1,28.2,-25.83,"pretoria",1630,28.106667,-25.788056
"82","huaripampa",10.5458545341517,1,-77.80901,-9.04692,"caras",1540,-77.8145701,-8.9517303
"77","hospitalet",10.6303423005981,1,0.97,41.08,"montroigdelcamp",1066,0.9237179,40.990924
"94","kamrup",10.7259351014393,1,91.52525,26.2452,"guwahati",546,91.5983959,26.3160819
"169","puttur",10.7943038699302,1,80.01,9.67,"jaffna",1667,80.0680751,9.7487684
"125","mandur",10.8404300314202,1,81.82,7.41,"kalmunai",1658,81.7540902,7.4826649
"113","lareina",10.9759020530444,1,-89.05,14.18,"sanfranciscomorazan",671,-89.1503566,14.1959529
"62","elaparejo",10.9909329937597,1,-84.53,12.07,"muelledelosbueyes",1443,-84.442863,12.12018
"199","taywara",11.080890635767,1,64.42,33.51,"taywarah",642,64.4318916,33.410592
"59","diepkloof",11.1316931125335,1,27.84,-26.28,"johannesburg",1058,27.946,-26.249
"183","sannicolaslempa",11.2335418142889,1,-88.6,13.43,"sanagustin",534,-88.7036731,13.4334131
"208","ungkayapukann",11.3672943159107,1,122.17944,6.58139,"tipotipo",1600,122.116667,6.5
"27","budgam",11.5104345797129,1,74.716667,34.016667,"srinagar",432,74.6400432,33.9348549
"41","conca",11.7197878916762,1,9.3747,41.83519,"sarisolenzara",892,9.334552,41.734041
"162","pavona",11.7980323901133,1,-86.18,13.3,"sansebastiandeyali",982,-86.135857,13.3974879
"130","mashokhel",11.9003316844063,1,71.54,34.01,"peshawar",1511,71.504141,33.9069592
"168","pushtrod",12.1324562599982,1,62.1,32.39,"farah",635,62.0282394,32.4809178
"89","joateca",12.2878262513784,1,-87.97,13.81,"corinto",235,-88.0448669,13.89357
"153","pacaycasa",12.4724671902879,1,-74.25,-12.95,"huanta",1029,-74.213611,-13.056944
"47","damous",12.5845127567603,1,1.56,36.54,"banihawa",1185,1.7,36.55
"34","chapahar",12.673554811213,1,70.44,34.44,"jalalabad",1128,70.4074861,34.3289766
"157","panare",12.7400882479125,1,101.37,6.87,"yaring",329,101.4850309,6.8626241
"75","hazarganji",12.8958950188457,1,66.99299,30.19438,"kotmalik",998,66.9332759,30.0902676
"64","elephantpass",12.9245854136078,1,80.41,9.4,"kilinochchi",324,80.4166667,9.5166667
"10","alimasjid",12.9971178733664,1,71.15,34.1,"kotal",1479,71.262,34.029
"218","yanta",13.0081624335741,1,35.86,33.51,"rasayya",1416,35.9445727,33.6034941
"108","lamina",13.1653976995662,1,-75.62,8.88,"cienagadeoro",1240,-75.575702,8.7694194
"42","curgos",13.2152306821595,1,-78.05,-7.81,"huamachuco",1020,-77.9417391,-7.8612166
"92","kalawanchikudi",13.4959833699647,1,81.82,7.41,"kalmunai",1074,81.7946092,7.5293725
"14","amiriyah",13.5353615010453,1,44.64,33.75,"baqubah",554,44.533333,33.6666669
"101","khasuruzgan",13.6188822134701,1,66.63,32.94,"uruzgan",340,66.712915,33.0409796
"204","tripura",13.6306949797057,1,91.85436,23.936,"ambasa",442,91.9881527,23.9408482
"197","tani",13.7995745280882,1,69.92041,33.33951,"khost",641,69.828056,33.242222
"21","barama",14.0403473143643,1,91.433333,26.416667,"nalbari",1329,91.3550862,26.522021
"164","pianottolicaldarello",14.5132327286781,1,9.15941,41.3874,"bonifacio",680,9.055084,41.491867
"56","dhanusha",14.8142551190262,1,85.92,26.73,"janakpur",371,86.0121573,26.8350474
"198","tarra",15.2058565147924,1,-73.22,8.08,"abrego",663,-73.0855357,8.0492802
"16","andhrapradesh",15.2091119034001,1,79.75,16.05,"vinukonda",429,79.7399875,15.9128998
"163","pesalai",15.2636417722965,1,79.89,8.97,"mannarama",608,79.810063,9.0828304
"48","dang",15.5182137946635,1,82.29,28.13,"tulsipur",1430,82.3017728,27.9903597
"174","rubelsanto",15.5290421691961,1,-90.45111,16.12889,"flordecacao",683,-90.4466991,15.9886228
"24","benibouateb",15.6536013479258,1,1.53299,36.18503,"ouedfodda",818,1.583333,36.05
"25","boya",16.2286408082299,1,70.06,33,"miramshah",1488,69.899944,32.9433362
"132","mediomagdalena",17.0107015936062,1,-74.57,10.18,"algarrobo",1241,-74.4335105,10.1067623
"167","puertosandino",17.03648870241,1,-86.68,12.33,"lapazcentro",1461,-86.763056,12.199444
"212","walasmulla",17.0972257974474,1,80.79,6.03,"tanggalla",1680,80.6937177,6.1508888
"137","morang",17.6861228078438,1,87.28333,26.66667,"ithari",570,87.460397,26.6799002
"200","thal",17.9794004681373,1,70.73,33.42,"doaba",730,70.5473168,33.367126
"32","chalerm",18.122067090326,1,101.65,12.78,"klaeng",1092,101.4831028,12.7812083
"123","maiha",18.2401418102119,1,13.07,9.91,"holma",718,13.21649,9.988122
"154","pachacca",18.2934462174939,1,-77.00615,-12.13951,"lima",1551,-76.8538748,-12.2095337
"105","lafonseca",18.3468533500936,1,-84.46,11.69,"nuevaguinea",1449,-84.3666912,11.5519909
"66","elsalado",18.5317099567246,1,-75.13,9.72,"elcarmendebolivar",1234,-75.0355596,9.5811115
"9","alhussainiyah",18.8281401211379,1,45.41,32.54,"annumaniyah",553,45.6089774,32.5196997
"219","yarhussain",18.9177332346856,1,72.47,34.13,"swabi",731,72.270833,34.170833
"161","paujil",18.9453135127966,1,-75.3,6.98,"campamento",1242,-75.2457184,7.1425004
"81","huando",19.0394313472077,1,-74.9,-12.4,"pampas",741,-74.9486422,-12.5653357
"139","nadirshahkot",19.3629659303335,1,69.92,33.34,"khowst",402,69.7167783,33.3773561
"193","shirintagab",19.4890269037039,1,64.91,36.41,"dawlatabad",1165,64.8644455,36.2382799
"43","dabori",19.5455629122376,1,70.73,33.42,"doaba",997,70.8301181,33.5749801
"207","umbumbulu",19.9929206129318,1,30.63646,-29.81292,"durban",761,30.702,-29.984
"179","sanjosedesecce",20.3282017264106,1,-74.25,-12.95,"huanta",1036,-74.2524129,-12.7662646
"159","parwanipur",21.058744189177,1,85.92,27.22,"kamalamai",1434,85.741667,27.116667
"87","janikhel",21.1270965744802,1,70.33917,32.67087,"gulishahkach",1139,70.506389,32.798611
"177","salbani",21.2109352564102,1,87.333333,22.833333,"amlagora",917,87.3190065,22.642257
"175","ruso",21.4511244292498,1,101.65,6.51,"bacho",1094,101.5020752,6.3845762
"19","bak",21.4622076006418,1,70.35,33.54,"alizai",272,70.1217652,33.509963
"90","johirong",21.6658783742857,1,102.27607,16.96705,"sibunrueang",1688,102.1867379,16.7911823
"118","lowerdir",22.8805557092006,1,72.07295,34.99798,"kakadwaridirupper",1501,71.9045649,34.8453312
"106","lagateada",23.5854963317787,1,-84.99,12.05,"villasandino",977,-84.779722,11.998889
"126","marja",23.5995745955161,1,64.35,31.59,"laskargah",504,64.116667,31.516667
"93","kalaya",23.7627640272467,1,71.05,33.54,"hangu",574,70.96598,33.7423875
"73","giciye",24.0288212900044,1,29.63,-1.5,"ruhengeri",1610,29.5586174,-1.705091
"20","bandhugaon",24.8865007566574,1,83.43,18.78,"parvatipuram",907,83.2572913,18.9333383
"147","nijrab",24.9088782067486,1,69.63,34.85,"tagab",802,69.8359154,34.9971359
"49","dawlatshah",26.1134130276235,1,70.38,34.94,"nuristan",790,70.0979491,34.9785593
"156","pallca",26.655399851309,1,-71.45952,-15.76803,"huarancante",1552,-71.570556,-15.983611
"214","wanela",26.8289103076672,1,81.22,8.58,"trincomalee",1089,81.079605,8.3817383
"216","welikanda",27.5044146329247,1,81,7.9333333,"polonnaruwa",480,81.2491298,7.9459654
"100","khaskunar",27.5859834328511,1,71.15,34.87,"asadabad",1144,71.0260046,34.6433682
"13","amarkot",28.1417089853067,1,83.083333,21.6,"sarangarh",903,83.354895,21.5902451
"176","safra",28.3004831306719,1,45.53,36.15,"sardasht",1383,45.337084,35.948733
"152","pabbo",28.4001127034541,1,32.28,2.78,"gulu",775,32.1434212,2.9970416
"173","rann",28.709685686872,1,14.22,12.37,"gamboru",719,14.4635958,12.2700809
"91","kabang",28.8490719460077,1,101.29,6.55,"yala",1689,101.0515364,6.4443297
"138","mudiyah",28.8585419756323,1,45.83488,13.83783,"jawfalmaqbabah",228,46.083333,13.933333
"6","aija",29.0708174143038,1,-77.53,-9.53,"huaraz",1014,-77.6092188,-9.780803
"192","serunuwara",29.5736373227631,1,81.22,8.58,"trincomalee",770,81.3007405,8.3249734
"103","korangal",30.7471322578223,1,70.38,34.94,"nuristan",1146,70.0575,35.0197222
"50","daymirdad",31.6304664100399,1,68.26,34.5,"gardandiwal",1132,68.2951738,34.2163541
"119","lubero",31.826692567878,1,29.28,0.13,"butembo",1253,29.24,-0.155
"202","tigbauanbanatuanmisamisandbuenas",32.7572505693504,1,121.484616,12.963906,"tambong",748,121.774017,12.879721
"131","mayurbhanj",32.7974483734995,1,86.73,21.95,"baripada",438,86.4187308,22.0086978
"160","pashtunkot",35.9040984256222,1,64.78361,35.92139,"maymana",804,64.7636592,35.598206
"5","adraskan",37.4815886453941,1,62.16,33.31,"sindand",785,62.266621,33.63591
"83","huayllapata",38.7336140812501,1,-72.89,-13.64,"abancay",318,-73.1333333,-13.3833333
"144","negrine",40.5837112544073,1,7.94313,34.38849,"tamaghzah",1195,7.516667,34.483333
"69","gajapati",40.6207090894767,1,83.816667,19.083333,"gunupur",301,84.1857115,19.1912221
"109","lamorada",44.4774608495533,1,-76.41,-8.42,"uchiza",1543,-76.2519729,-8.7901197
"67","escravos",46.1729137981596,1,5.51,5.35,"burutu",462,5.18708,5.613867
"22","bargimatal",47.2206510100349,1,70.92261,35.42064,"parun",500,71.2874209,35.7244483
"149","ocros",55.0110410004446,1,-77.8,-10.7,"pativilca",584,-77.396389,-10.403611
"141","natal",55.0586326286319,1,31.41,-28.33,"ulundi",262,30.8958242,-28.5305539
"80","huancaraylla",58.1127150986764,1,-74.22,-13.17,"ayacucho",1021,-74.140961,-13.68954
"127","maruf",60.4515842806578,1,66.90833,32.10575,"qalat",400,67.042618,31.57276
"166","puertobolivar",64.9439097490981,1,-72.27,11.72,"uribia",861,-71.9786626,12.2322387
"206","tump",71.513554416571,1,63.07,25.99,"turbat",1012,62.3653168,26.096947
"220","yauyos",75.3530040579047,1,-76.4,-12.95,"quilmana",1571,-75.9180163,-12.4600662
"7","akashat",76.2988533753996,1,40.3,33.04,"arrutbah",1365,39.9684003,33.6691331
"15","andar",81.1681086077913,1,62.16,33.31,"sindand",271,62.933333,33.65
"2","abeibara",81.3754260065552,1,1.41,18.45,"kidal",1420,1.75,19.11
"44","dadaab",89.9274645822559,1,39.67,-0.44,"garissa",250,40.314,0.051
"129","mashkai",95.22873191798,1,66.3,26.23,"bela",1510,65.3718026,26.0380192
"124","mand",104.545330484944,1,63.07,25.99,"turbat",256,62.0340963,26.1120526
"57","dhoobley",117.620451334623,1,42.06,0.52,"afmadu",1617,41.0088944,0.4112971
