"","CityGTD","DistKM","fake","long","lat.x","name","X","lon","lat.y"
"79","ghourian",0,1,61.47,34.34,"gurian",1135,61.47,34.34
"87","harardhere",0.00486558936887751,1,47.8575,4.6544,"xarardheere",1619,47.8575,4.654444
"142","palmademallorca",0.0464445520852056,1,2.65,39.57,"palma",322,2.6501603,39.5696005
"31","beruit",0.103897634544173,1,35.49442,33.88894,"beirut",566,35.4954794,33.8886289
"213","zaharani",0.103897634544173,1,35.49442,33.88894,"beirut",956,35.4954794,33.8886289
"122","mansoura",0.179934258686092,1,31.38,31.04,"elmansura",1262,31.3784704,31.0409483
"132","nabatia",0.190917100982624,1,35.48389,33.37889,"nabatiyeettahta",1410,35.4838294,33.3771694
"10","antigua",0.192634142118424,1,-90.74,14.56,"guatemalacity",1311,-90.7390245,14.5585411
"96","jiangmeng",0.240308966921169,1,113.08,22.58,"zhongshan",1228,113.081901,22.578738
"90","hatay",0.29975494863492,1,36.17,36.2,"antakya",394,36.166667,36.2
"69","erigavo",0.307089086171779,1,47.36795,10.61616,"ceerigaabo",1618,47.37,10.618056
"27","baydhabo",0.314495223443111,1,43.6498,3.11383,"baidoa",751,43.65,3.116667
"39","calinan",0.360960592786403,1,125.422222,7.185,"davaocity",1039,125.4217,7.188222
"61","elgeneina",0.415566849317661,1,22.44725,13.45262,"geneina",1682,22.45,13.45
"80","ghulamkhan",0.420542570471895,1,70.07117,33.00059,"miranshah",1496,70.0711502,32.9967981
"75","gallarta",0.456574284517278,1,-3.07,43.32,"ortuella",1641,-3.0744407,43.3174749
"16","assamawahh",0.487046299414952,1,45.28,31.32,"assamawah",365,45.283333,31.316667
"174","sanpedrodelovago",0.517267597838892,1,-85.12,12.13,"sanpedrodellovago",1467,-85.116667,12.133333
"8","amritsan",0.701281115378812,1,74.87,31.64,"amritsar",1325,74.8722642,31.6339793
"47","chincha",0.707941190682833,1,-76.14,-13.42,"chinchaalta",581,-76.136711,-13.42553
"26","basilanisland",0.7469783151704,1,122.0168,6.6909,"begang",589,122.0232408,6.6929389
"73","fukouka",0.770023328634569,1,130.41,33.59,"fukuoka",698,130.4017155,33.5903547
"151","poipet",0.812538838805889,1,102.5625,13.65611,"paoypet",411,102.566667,13.65
"51","comayaguela",0.822504733493384,1,-87.22,14.09,"tegucigalpa",1322,-87.2167,14.0833
"25","bardera",0.825175329952212,1,42.28,2.34,"bardere",476,42.283333,2.333333
"138","nuevoprogresso",0.860134351487705,1,-91.92,14.8,"nuevoprogreso",542,-91.9209164,14.7922776
"195","staoueli",0.940700099841629,1,2.89,36.76,"algiers",1206,2.8881795,36.7516507
"91","herzliya",0.949875051243982,1,34.84,32.17,"telaviv",559,34.844675,32.162413
"130","multiple",0.953767000670123,1,85.31,27.71,"kathmandu",964,85.3111175,27.7185492
"189","sidirais",1.05564848847283,1,3.04,36.77,"algiers",1203,3.0417473,36.7794082
"119","mahmudraqi",1.06052770093839,1,69.35112,35.02298,"sidqabad",1149,69.3488408,35.0136063
"179","santotomasdelnorte",1.06054431316494,1,-86.93,13.18,"santotomas",987,-86.9229695,13.1866662
"57","doomdooma",1.13617072731015,1,95.566667,27.566667,"dumduma",1335,95.5551652,27.5664171
"148","pidie",1.16292591478638,1,95.94,5.38,"sigli",923,95.9356872,5.3704132
"12","arcatao",1.16979072137344,1,-88.75,14.08333,"elachiotal",289,-88.749444,14.093889
"67","ereguayquin",1.44437350556543,1,-88.37,13.35,"concepcionbatres",1278,-88.383333,13.35
"70","eshkolot",1.48051448521736,1,34.91246,31.37952,"arramadin",370,34.904856,31.391171
"103","khorog",1.49810150349142,1,71.55304,37.48974,"khorugh",481,71.5545911,37.5031813
"168","sanestebancatarina",1.51854460907968,1,-88.78,13.67,"apastepeque",240,-88.783333,13.683333
"44","castellondelaplana",1.57327120702558,1,-0.03333,39.98333,"castellodelaplana",762,-0.0513246,39.9863563
"13","arce",1.65329947033069,1,-77,-12.08,"lima",1268,-76.9942234,-12.0661782
"183","satengnok",1.76825433856568,1,101.29,6.55,"yala",1697,101.305833,6.547778
"124","matanog",1.84281215186241,1,124.25,7.48333,"sapadun",591,124.25,7.466667
"28","beitshean",1.86059429395776,1,35.51,32.51,"betshean",936,35.497336,32.497103
"129","montelimar",1.93669518421495,1,-86.51416,11.78687,"masachapa",1459,-86.5186022,11.8038217
"175","sanrafaelobrajuelo",1.98362839512187,1,-88.94,13.51,"santiagononualco",353,-88.9234254,13.5023571
"86","halhoul",2.4269772351113,1,35.11,31.6,"halhul",558,35.0999042,31.5798898
"76","garciarovira",2.43395478381542,1,-73.13,7.13,"bucaramanga",1236,-73.1393861,7.1100883
"127","mlang",2.48693130650133,1,124.86083,6.94972,"davaocity",382,124.883333,6.95
"177","santareparatadibalagna",2.49360588515576,1,8.95477,42.61705,"monticello",537,8.929852,42.6042
"38","buldon",2.56274926830372,1,124.38972,7.51944,"kulempang",471,124.366667,7.516667
"212","yamabal",2.56349658128744,1,-88.2,13.67,"guatajiagua",535,-88.1766993,13.6657907
"33","bintjbeil",2.58128561559096,1,35.40251,33.11023,"ainebel",951,35.4288797,33.1172473
"201","thirunelveli",2.83564822105596,1,80.01,9.67,"jaffna",1672,80.0284725,9.6879258
"83","gualache",2.95027567372519,1,-88.5,13.39,"ozatlan",421,-88.5,13.416667
"37","bukavu",3.16517331742141,1,28.84,-2.51,"bukavu",414,28.866667,-2.5
"190","solenzara",3.19177747051455,1,9.3747,41.83519,"sarisolenzara",538,9.399654,41.857045
"196","staryeatagi",3.21039551116647,1,45.743225,43.088693,"chiriyurt",750,45.733333,43.116667
"107","labrujala",3.29583172286596,1,-15.52325,28.11983,"arucas",764,-15.5372249,28.1468669
"19","aydinlikevler",3.34309580411323,1,30.52,39.79,"eskisehir",1703,30.495691,39.766446
"101","kfardarom",3.51377031964836,1,34.56,31.67,"ashqelon",937,34.5800161,31.6966695
"68","erez",3.6063723388273,1,34.58,31.53,"sederot",1386,34.564889,31.55984
"171","sanjose",3.64572055007777,1,-86.13,11.82,"lapazdeoriente",1464,-86.143377,11.8502079
"7","ammal",3.664429133059,1,3.59115,36.66774,"beniamrane",646,3.590556,36.634722
"82","guadalupe",3.75619713883574,1,-98.11889,19.04222,"puebla",420,-98.1363152,19.0718332
"100","keddara",3.9055060818179,1,3.38,36.64,"algiers",651,3.4220755,36.6494344
"166","sanaandaj",3.91894222157642,1,47.02,35.3,"sanandaj",551,46.9861647,35.3218748
"200","tangmarg",4.00586599159529,1,74.383333,34.05,"gulmarg",1352,74.4247164,34.0608525
"35","brazzaville",4.05469425173229,1,15.26,-4.25,"brazzaville",232,15.291944,-4.267778
"97","jusici",4.06393951356773,1,19.06,44.47,"petkovci",656,19.0483,44.5056
"128","mohammadia",4.42351768115611,1,3.18,36.72,"algiers",1193,3.133333,36.733333
"126","meadowlands",4.46328528076747,1,27.8725,-26.1625,"johannesburg",478,27.8765626,-26.2026186
"93","huizucar",4.49693159884311,1,-89.2,13.57,"sansalvador",1281,-89.2360234,13.5902564
"111","laoroyo",4.57566864581259,1,-75.94,-11.52,"laoroya",1544,-75.8984154,-11.5254018
"161","rukhi",4.75812642975952,1,41.86,42.5,"zugdidi",1310,41.8511887,42.542335
"58","dunmurry",4.76332283943424,1,-6.06,54.52,"lisburn",268,-6.0072184,54.5498161
"158","rasharkin",4.82003869387957,1,-6.55695,54.95091,"kilrea",1720,-6.48243,54.95686
"185","semender",4.82398463762455,1,47.35,42.97,"leninkent",1608,47.403611,42.988333
"211","yakouren",4.88628732470682,1,4.47,36.77,"buzqan",407,4.4386329,36.7339217
"150","poblacion",5.00907288957769,1,125.63,7.11,"davaocity",1596,125.6040785,7.072838
"41","campana",5.09568012851772,1,-89.03,13.5,"sansalvador",1269,-89.0770584,13.4991038
"170","sanjeronimo",5.14266901823792,1,-88.26,13.64,"chapeltique",889,-88.3008448,13.6637732
"52","cullyhanna",5.34574954730751,1,-6.6,54.08333,"crossmaglen",615,-6.58726,54.13077
"120","mamond",5.39056022887278,1,68.19484,26.91067,"bhiria",1503,68.1533539,26.8793134
"121","manipurs",5.70554636237566,1,93.883333,24.616667,"mayangimphal",1344,93.9062688,24.6637173
"84","guindulungan",5.75842425974403,1,124.4,6.97,"dalican",1581,124.348056,6.965833
"116","likoni",5.85206089061982,1,39.66,-4.04,"mombasa",945,39.6614446,-4.0929017
"64","elmango",6.0041727941435,1,-75.99,6.41,"caicedo",856,-75.9376146,6.3958068
"89","hashimiyah",6.00864067182854,1,43.14,36.34,"mosul",932,43.1783764,36.3843695
"74","galilee",6.04478759791906,1,35.53,32.8,"tiberias",451,35.5876697,32.8244805
"157","rashakai",6.18739338796975,1,71.99,34.07,"risalpur",1514,72.021667,34.119167
"202","tierraalta",6.43784939978496,1,-73.49,4.27,"cumaral",522,-73.4460123,4.2320625
"3","ahnif",6.44439219229798,1,4.32,36.37,"assurfa",510,4.261944,36.335833
"30","benburb",6.57614385530975,1,-6.66667,54.45,"moy",1099,-6.74394,54.41178
"55","dobsonville",6.64910828230171,1,27.84,-26.28,"johannesburg",758,27.863611,-26.223889
"29","bekkersdal",6.80004804148749,1,27.65,-26.32,"johannesburg",1056,27.7036143,-26.2821607
"20","azacualpa",6.8167102358725,1,-88.95,14.04,"chalatenango",877,-88.9856574,13.9891678
"180","santurce",6.92528306655121,1,-66.1061111,18.4683333,"sanjuan",1602,-66.047222,18.440833
"49","choirong",7.13421069371314,1,100.48739,14.62161,"banthaitan",393,100.5536063,14.6210834
"208","urchiza",7.18502163958628,1,-76.41,-8.42,"uchiza",1570,-76.4619911,-8.4592507
"181","sardheri",7.24762668801426,1,71.77,34.18,"peshawar",315,71.845274,34.1611735
"48","chisnau",7.38561174488493,1,28.83,47.03,"chisinau",957,28.916667,47
"198","tairharfa",7.47143817895199,1,35.13972,33.11806,"ennaqoura",955,35.2190723,33.126993
"81","golanheights",7.5596326615467,1,34.91,31,"yeroham",1389,34.851612,31.046051
"199","talkali",7.6685751262176,1,70.07117,33.00059,"miranshah",1519,70.1046474,32.9374644
"34","bophuthatswana",7.69841278252708,1,27.24,-25.65,"rustenburg",1057,27.3021879,-25.6093705
"137","nowgam",7.75600213675138,1,74.79,34.09,"srinagar",912,74.8243939,34.0262062
"169","sanignacio",7.85005062139937,1,-89.2,14.4,"antiguaocotepeque",352,-89.1729807,14.3341209
"98","jutiapa",8.10604409963145,1,-89.92,14.12,"comapa",236,-89.9253233,14.1930802
"191","sonitpor",8.3118039780365,1,92.79,26.63,"tezpur",303,92.8577105,26.6738851
"65","elporvenir",8.38559971544206,1,-86.62,13.35,"lassabanas",1447,-86.550554,13.3165282
"77","germiston",8.53317118180482,1,28.23,-26.27,"johannesburg",320,28.167222,-26.217778
"167","sanchezmira",8.65658889923377,1,121.165699,18.610905,"namuac",1045,121.233333,18.566667
"113","lapenca",8.66818151111982,1,-85.89,11.5,"belen",979,-85.9679349,11.5152518
"94","iledecavallo",8.93790358395004,1,9.15941,41.3874,"bonifacio",536,9.2633141,41.3686469
"193","souanine",9.49867561521566,1,3.89,36.92,"dalis",1204,3.7879621,36.8952692
"112","lapalma",9.89640983096524,1,-89.2,14.4,"antiguaocotepeque",237,-89.166667,14.316667
"215","zekri",10.013874325344,1,4.47,36.77,"buzqan",834,4.5793248,36.790224
"143","pampacancha",10.0561842500526,1,-77.65,-9.29,"carhuaz",1030,-77.6190412,-9.2044388
"60","elancer",10.2367680689885,1,6.27,36.76,"almiliyah",650,6.166667,36.8
"165","sanaagoran",10.4153634957132,1,-78.05,-7.81,"huamachuco",470,-78.1414598,-7.7865645
"133","nala",10.7436258751397,1,73.91667,33.51667,"kotli",1004,73.8261001,33.4564748
"45","chavin",10.8266592695392,1,-77.53,-9.53,"huaraz",1017,-77.5354295,-9.4322622
"5","altobayano",10.8945663217345,1,-79.1,9.17,"chepo",577,-79.016667,9.116667
"72","figari",11.3664544192007,1,9.15941,41.3874,"bonifacio",893,9.130112,41.48734
"162","rupandehi",11.6158412315947,1,83.45,27.71,"butwal",458,83.3789389,27.6264239
"109","lalaguna",11.7444652781069,1,-89.05,14.18,"sanfranciscomorazan",293,-88.9425836,14.1631729
"63","ellimon",11.7480632572253,1,-89.5,13.74,"sansalvador",528,-89.3914251,13.7368599
"141","ouledbrahim",11.7823421555539,1,2.91,36.14,"birwaqiyah",1198,2.933611,36.244444
"23","banadia",11.8836209096942,1,-71.92,6.99,"saravena",852,-71.852686,6.9062
"209","uttarpradesh",12.2215817326459,1,80.2,27.633333,"pihani",921,80.0981869,27.5705886
"88","hasbeya",12.4560776706994,1,35.59,33.34,"marjuyun",1403,35.7188463,33.3703499
"139","omanthai",12.582042722884,1,80.49,8.76,"vavuniya",1083,80.5077237,8.872387
"125","mazer",12.6508948781946,1,6.34706,35.25881,"arris",1192,6.2083985,35.2506924
"2","ahmadkhel",12.703515625742,1,69.7,33.94,"alihayl",1122,69.65,33.833333
"206","toghsarai",12.8315374788388,1,71.05,33.54,"hangu",1521,70.9735351,33.4436701
"104","korangi",12.8890577048732,1,67.01,24.86,"karachi",255,67.1318397,24.8256705
"194","soutpansberg",12.9002269318317,1,29.89,-23.04,"louistrichardt",1636,29.7688889,-23.0083333
"21","azeffoun",13.0012768719326,1,4.33,36.8,"agrib",1178,4.4240151,36.8895311
"22","azzefoun",13.0012768719326,1,4.33,36.8,"agrib",815,4.4240151,36.8895311
"42","canonegro",13.0373785262893,1,-83.82,12.02,"elcoral",1441,-83.9097923,11.9420592
"197","sumal",13.2100689623156,1,-91.15,15.41,"nebaj",900,-91.169533,15.52787
"110","lalpur",13.9431687219154,1,70.87,34.25,"batsawul",1148,70.95468,34.3542162
"53","damour",14.1370641390545,1,35.54417,33.83389,"beirut",952,35.4547307,33.7306091
"145","paquibato",14.2457935186929,1,125.416667,7.233333,"davaocity",746,125.4672368,7.3518379
"36","buale",15.081199056184,1,42.57377,1.25311,"dujuuma",1053,42.7076107,1.2317783
"154","quinua",15.4297197892435,1,-74.22,-13.17,"ayacucho",585,-74.139107,-13.05526
"123","manu",15.4388687582164,1,91.85436,23.936,"ambasa",1345,91.9905996,23.9972939
"85","hakmana",15.6415048362887,1,80.79,6.03,"tanggalla",1073,80.6576623,6.0795539
"114","lasdelicias",16.3526197733472,1,-85.39,13.23,"waslala",713,-85.24249,13.2610936
"146","penasblancas",16.9195464681338,1,-85.75,13.42,"elcua",983,-85.6725,13.2872222
"176","santander",17.0568795919078,1,-73.51,6.7,"elcarmen",287,-73.6536209,6.6437076
"17","ataikula",17.3221160455822,1,89.24,24,"pabna",840,89.4068138,24.0313053
"184","saydabad",17.4960657958086,1,68.93,33.97,"barakibarak",278,68.7631916,33.8955188
"71","ferozepore",18.3778319089854,1,73.25,30,"bahawalnagar",684,73.2155556,30.1630556
"78","ghalanai",19.2585233645964,1,71.57,34.22,"peshawar",311,71.4,34.321111
"207","ulcumayo",19.8869042992843,1,-76.05,-10.91,"carhuamayo",1569,-75.8780855,-10.9688336
"186","sheikhabad",19.9517364413351,1,68.93,33.97,"barakibarak",639,68.7617012,34.0827715
"32","betoyes",20.7300564445252,1,-71.74,6.46,"tame",853,-71.555267,6.4915649
"105","kubaysah",20.777412462651,1,42.83,33.65,"hit",556,42.617222,33.591667
"117","macinaggio",21.3046485516179,1,9.45,42.76667,"brando",1306,9.450356,42.958448
"40","callejondehuaylas",21.3362587759238,1,-77.82,-9.05,"caraz",1529,-77.8924608,-8.8710472
"102","khakrez",22.7446329225287,1,65.69,31.61,"qandahar",275,65.5707852,31.7880105
"118","mahindapura",23.2344009226158,1,81.12,6.13,"hambantota",1657,81.2554783,6.2904994
"4","almar",23.2980414624813,1,64.77,35.93,"maymanah",499,64.5333,35.8464
"6","amiriyatalfallujah",23.4190320265767,1,43.77,33.36,"alfallujah",691,43.8649341,33.1644862
"46","cheddikulam",23.7413353691631,1,80.49,8.76,"vavuniya",323,80.2962385,8.6655956
"182","sarin",25.0140207911944,1,-78.05,-7.81,"huamachuco",1563,-77.8595963,-7.9329235
"216","zurmat",25.2616538854936,1,69.22,33.6,"gardez",509,69.0314536,33.4358885
"131","musakhel",25.3314178187814,1,69.92,33.34,"khowst",505,69.7882627,33.5399109
"203","timergara",25.9363165967977,1,71.97,34.62,"batkhela",379,71.840833,34.828056
"178","santarosadelima",26.5280499669106,1,-74.39,9.8,"nuevagranada",1246,-74.4591572,9.5701817
"192","sori",26.7293996032514,1,67.1,36.7,"mazaresarif",809,67.1713889,36.4661111
"144","pantukan",27.0078744322231,1,126.272683,7.040502,"limot",593,126.1562026,7.2552217
"62","elguabo",27.0306329316132,1,-84.99,12.05,"villasandino",971,-84.8163822,12.2247088
"135","necoast",27.9358451877929,1,79.89,8.97,"mannarama",1082,79.9621519,8.7278255
"14","ashaka",27.9502675138668,1,11.34,11.07,"nafada",717,11.5148604,10.8856182
"172","sankhuwasabha",28.1277631634284,1,87.22,27.37,"khandbari",1436,87.1422895,27.6141916
"95","jere",28.2076482824709,1,8.89,9.93,"jos",1472,8.9010809,10.1847867
"56","dokan",29.260230546781,1,45.12,36.18,"qalatdizah",1371,44.9621033,35.9495589
"136","nedunkerni",29.9069048757524,1,80.8166667,9.2666667,"mullaitivu",1660,80.6493396,9.053435
"50","chokpot",31.4790405232357,1,90.22,25.52,"tura",1332,90.4408037,25.3186615
"134","nawagai",31.5780277185751,1,72.47,34.13,"swabi",378,72.558932,34.404932
"173","sanmarcos",34.5909454443244,1,-78.04,-7.62,"cajabamba",1561,-78.169722,-7.335278
"11","aouf",34.774453849227,1,0.14,34.84,"saidah",1176,0.3571841,35.0974693
"187","sholgara",35.8494989193883,1,66.87,36.33,"sulgara",506,67.237117,36.2035342
"15","asmara",36.613591391304,1,41.44,11.56,"asayita",427,41.5438889,11.2452778
"99","kallar",37.1578410809619,1,81.22,8.58,"trincomalee",1075,81.2833333,8.25
"152","pottuvil",37.481916084153,1,81.5,6.8,"wattegama",391,81.8306334,6.8752706
"147","pichanaki",37.8290110722774,1,-75.22,-10.97,"perene",1032,-74.8770282,-10.9242648
"54","deniyaya",37.8556575526769,1,80.71,6.65,"balangoda",606,80.5596582,6.3424847
"9","andamarca",39.2670362765216,1,-74.13,-14.7,"puquio",733,-73.9624327,-14.3848678
"159","razmak",40.6063856011099,1,70.06,33,"miramshah",466,69.829959,32.6895877
"204","tminou",41.4951417184688,1,93.983333,24.483333,"kakching",1355,94.2676545,24.2140807
"155","rabiaa",42.0012114092196,1,42.15,37.18,"almalikiyah",695,42.088889,36.804722
"106","kwazulu",42.2377470547912,1,28.1,-32.33,"butterworth",1629,28.1780919,-31.9549395
"108","ladakh",42.6690325634487,1,77.583333,34.166667,"leh",1342,78,34
"188","shoqra",42.7386235572319,1,45.38073,13.12871,"zinjibar",1744,45.699722,13.355833
"115","leego",43.2590846593119,1,44.89,2.62,"wanlaweyn",1054,44.5136111,2.7188889
"210","vakarai",43.8634577310583,1,81.6038,7.7782,"eravurtown",1677,81.434079,8.1369099
"59","easterntransvaal",46.6565379979274,1,30.98,-25.47,"nelspruit",1060,30.5279096,-25.565336
"156","rashad",47.260850909246,1,44.41,35.47,"kirkuk",449,44.0877118,35.1358494
"163","sabayoi",47.9861758658694,1,100.43,6.63,"sadao",1696,100.8451467,6.5038266
"149","pilpichaca",53.1577330348839,1,-74.72,-12.93,"lircay",1033,-74.9975,-13.3261109
"160","rosario",54.3142632270576,1,-69.05,-16.57,"desaguadero",1034,-69.35,-16.966667
"214","zehri",60.4323773675337,1,66.58,29.03,"kalat",1522,66.9034936,28.5651239
"92","hualla",60.5635677821446,1,-73.43,-13.65,"talavera",1537,-73.9521468,-13.84783
"205","tocota",63.7387835599618,1,-74.63,-15.43,"acari",1567,-74.0784785,-15.6442505
"153","putaccasa",76.9333327703871,1,-74.13,-14.7,"puquio",1557,-74.3833329,-14.05
"164","sacsamarca",85.817614639011,1,-74.13,-14.7,"puquio",1035,-74.3121886,-13.944985
"140","oroya",93.222685437911,1,-70.44,-14.07,"macusani",1028,-70.7,-13.266667
"24","banibangou",101.848800437417,1,3.33,14.35,"filingue",1468,2.705,15.0408
"18","awaran",109.690420263565,1,66.3,26.23,"bela",573,65.2307964,26.4583879
"1","abyei",122.579639815084,1,28.10037,8.53324,"gogrial",771,28.4367551,9.5898957
"43","caqueta",123.656161770199,1,-74.85,1.34,"cartagenadelchaira",855,-73.8419063,0.869892
"66","elwak",153.510210982172,1,40.05,1.75,"wajir",944,40.933333,2.816667
