"","pop","country.etc","name","lat","long","capital","Region","largestC"
"57917",15017783,"china","shanghai",31.23,121.47,"2",NA,1
"57916",12883645,"india","mumbai",18.96,72.82,"0",NA,1
"57915",12692717,"india","bombay",18.975,72.825833,NA,"16",1
"57914",11969284,"pakistan","karachi",24.86,67.01,"0",NA,1
"57913",11595183,"argentina","buenosaires",-34.61,-58.37,"1",NA,1
"57912",11215130,"india","delhi",28.67,77.21,"1",NA,0
"57911",10928270,"india","newdelhi",28.6,77.2,"1","7",0
"57910",10546511,"philippines","manila",14.62,120.97,"1",NA,1
"57909",10472629,"russianfederation","moscow",55.75,37.62,"1",NA,1
"57908",10409345,"korearep","seoul",37.56,126.99,"1",NA,1
"57907",10059502,"brazil","saopaulo",-23.53,-46.63,"0",NA,1
"57906",10034830,"turkey","istanbul",41.1,29,"0",NA,1
"57905",9020089,"nigeria","lagos",6.45,3.47,"0",NA,1
"57904",8720916,"mexico","mexico",19.434167,-99.138611,"1","9",1
"57903",8659409,"mexico","mexicocity",19.43,-99.14,"1",NA,1
"57902",8556798,"indonesia","jakarta",-6.18,106.83,"1",NA,1
"57901",8372440,"japan","tokyo",35.67,139.77,"1",NA,1
"57900",8124427,"unitedstates","newyork",40.67,-73.94,"0",NA,1
"57899",8096254,"congodemrep","kinshasa",-4.31,15.32,"1",NA,1
"57898",7857121,"peru","lima",-12.07,-77.05,"1",NA,1
"57897",7836243,"egyptarabrep","cairo",30.06,31.25,"1",NA,1
"57896",7602069,"china","beijing",39.93,116.4,"1",NA,0
"57895",7489022,"unitedkingdom","london",51.52,-0.1,"1",NA,1
"57894",7480601,"china","peking",39.928889,116.388333,"1","22",0
"57893",7235084,"colombia","bogota",4.63,-74.09,"1",NA,1
"57892",7160094,"iranislamicrep","tehran",35.67,51.43,"1","1",1
"57891",6724976,"bangladesh","dhaka",23.7,90.39,"1",NA,1
"57890",6485175,"pakistan","lahore",31.56,74.35,"0",NA,0
"57889",6055582,"brazil","riodejaneiro",-22.91,-43.2,"0",NA,0
"57888",5753612,"iraq","baghdad",33.33,44.44,"1",NA,1
"57887",5104047,"india","bangalore",12.97,77.56,"0",NA,0
"57886",4935988,"thailand","bangkok",13.73,100.5,"1",NA,1
"57885",4893495,"chile","santiago",-33.46,-70.64,"1",NA,1
"57884",4670783,"canada","toronto",43.65,-79.38,"0",NA,1
"57883",4638350,"india","calcutta",22.57,88.36,"0",NA,0
"57882",4572948,"myanmar","rangoon",16.79,96.15,"1",NA,1
"57881",4444513,"australia","sydney",-33.87,151.21,"0",NA,1
"57880",4352932,"india","madras",13.09,80.27,"0",NA,0
"57879",4328067,"saudiarabia","riyadh",24.65,46.77,"1",NA,1
"57878",4236023,"china","wuhan",30.58,114.27,"3",NA,0
"57877",4133663,"china","chongqing",29.57,106.58,"2",NA,0
"57876",4091916,"china","xian",34.27,108.9,"0",NA,0
"57875",4014710,"russianfederation","saintpetersburg",59.93,30.32,"0",NA,0
"57874",3961709,"china","chengdu",30.67,104.07,"3",NA,0
"57873",3911500,"unitedstates","losangeles",34.11,-118.41,"0",NA,0
"57872",3865502,"egyptarabrep","alexandria",31.22,29.95,"0",NA,0
"57871",3796677,"cotedivoire","abidjan",5.33,-4.03,"0",NA,1
"57870",3795034,"bangladesh","chattagam",22.33,91.81,"0",NA,0
"57869",3780871,"australia","melbourne",-37.81,144.96,"0",NA,0
"57868",3769846,"india","ahmadabad",23.03,72.58,"0",NA,0
"57867",3761272,"china","tianjin",39.13,117.2,"2",NA,0
"57866",3739214,"nigeria","kano",12,8.52,"0",NA,0
"57865",3707361,"nigeria","ibadan",7.38,3.93,"0",NA,0
"57864",3672732,"korearep","pusan",35.11,129.03,"0",NA,0
"57863",3632094,"india","hyderabad",17.4,78.48,"0",NA,0
"57862",3603710,"japan","yokohama",35.47,139.62,"0",NA,0
"57861",3601745,"singapore","singapore",1.3,103.85,"1",NA,1
"57860",3579706,"turkey","ankara",39.93,32.85,"1",NA,0
"57859",3546429,"southafrica","capetown",-33.93,18.46,"0",NA,1
"57858",3538726,"china","shenyang",41.8,123.45,"3",NA,0
"57857",3496586,"vietnam","hochiminhcity",10.78,106.69,"0",NA,1
"57856",3378275,"germany","berlin",52.52,13.38,"1",NA,1
"57855",3280123,"canada","montreal",45.52,-73.57,"0",NA,0
"57854",3279454,"china","harbin",45.75,126.65,"3",NA,0
"57853",3244028,"southafrica","durban",-29.87,30.99,"0",NA,0
"57852",3177281,"morocco","casablanca",33.6,-7.62,"0",NA,1
"57851",3160179,"china","nanjing",32.05,118.78,"3",NA,0
"57850",3158125,"china","guangzhou",23.12,113.25,"3",NA,0
"57849",3146804,"spain","madrid",40.42,-3.71,"1",NA,1
"57848",3120963,"afghanistan","kabul",34.53,69.17,"1",NA,1
"57847",3043128,"india","pune",18.53,73.84,"0",NA,0
"57846",3022821,"india","surat",21.2,72.82,"0",NA,0
"57845",2992272,"koreademrep","pyongyang",39.02,125.75,"1",NA,1
"57844",2970099,"sudan","ummdurman",15.65,32.48,"0",NA,1
"57843",2934584,"saudiarabia","jiddah",21.5,39.17,"0",NA,0
"57842",2898859,"india","kanpur",26.47,80.33,"0",NA,0
"57841",2875277,"angola","luanda",-8.82,13.24,"1",NA,1
"57840",2864667,"kenya","nairobi",-1.29,36.82,"1",NA,1
"57839",2830144,"unitedstates","chicago",41.84,-87.68,"0",NA,0
"57838",2823167,"ethiopia","addisabeba",9.03,38.74,"1",NA,1
"57837",2817522,"india","jaipur",26.92,75.8,"0",NA,0
"57836",2805523,"tanzania","daressalaam",-6.82,39.28,"0",NA,1
"57835",2762758,"brazil","salvador",-12.97,-38.5,"0",NA,0
"57834",2752516,"china","taiyuan",37.87,112.55,"3",NA,0
"57833",2723378,"somalia","mogadishu",2.05,45.33,"1",NA,1
"57832",2618428,"korearep","inchon",37.48,126.64,"0",NA,0
"57831",2602574,"china","changchun",43.87,125.35,"3",NA,0
"57830",2590815,"japan","osaka",34.68,135.5,"0",NA,0
"57829",2582175,"pakistan","faisalabad",31.41,73.11,"0",NA,0
"57828",2580024,"korearep","taegu",35.87,128.6,"0",NA,0
"57827",2561181,"italy","rome",41.89,12.5,"1",NA,1
"57826",2557851,"turkey","izmir",38.43,27.15,"0",NA,0
"57825",2541101,"india","lakhnau",26.85,80.92,"0",NA,0
"57824",2491662,"china","taipei",25.02,121.45,"1",NA,1
"57823",2491404,"ukraine","kiev",50.43,30.52,"1",NA,1
"57822",2468625,"egyptarabrep","gizeh",30.01,31.21,"0",NA,0
"57821",2445713,"colombia","cali",3.44,-76.52,"0",NA,0
"57820",2406598,"senegal","dakar",14.72,-17.48,"1",NA,1
"57819",2399577,"brazil","belohorizonte",-19.92,-43.94,"0",NA,0
"57818",2387734,"iranislamicrep","mashhad",36.27,59.57,"0",NA,0
"57817",2366850,"indonesia","surabaya",-7.24,112.74,"0",NA,0
"57816",2349632,"brazil","fortaleza",-3.78,-38.59,"0",NA,0
"57815",2272891,"india","nagpur",21.16,79.08,"0",NA,0
"57814",2260541,"brazil","brasilia",-15.78,-47.91,"1",NA,0
"57813",2253437,"dominicanrepublic","santodomingo",18.48,-69.91,"1",NA,1
"57812",2194748,"japan","nagoya",35.15,136.91,"0",NA,0
"57811",2163132,"cuba","havanna",23.13,-82.39,"1",NA,1
"57810",2143094,"iraq","al-mawsil",36.34,43.14,"0",NA,0
"57809",2141839,"france","paris",48.86,2.34,"1",NA,1
"57808",2141270,"iraq","al-basrah",30.5,47.83,"0",NA,0
"57807",2131620,"china","changsha",28.2,112.97,"3",NA,0
"57806",2109987,"china","jinan",36.67,117,"3",NA,0
"57805",2091491,"southafrica","johannesburg",-26.19,28.04,"0",NA,0
"57804",2090001,"sudan","khartoum",15.58,32.52,"1",NA,0
"57803",2080120,"china","shijiazhuang",38.05,114.48,"3",NA,0
"57802",2076179,"china","dalian",38.92,121.65,"0",NA,0
"57801",2043005,"unitedstates","houston",29.77,-95.39,"0",NA,0
"57800",2029936,"algeria","algiers",36.77,3.04,"1",NA,1
"57799",2029143,"ghana","accra",5.56,-0.2,"1",NA,1
"57798",2023495,"china","zhengzhou",34.75,113.67,"3",NA,0
"57797",2021392,"colombia","medellin",6.29,-75.54,"0",NA,0
"57796",2000482,"venezuelarb","maracaibo",10.73,-71.66,"0",NA,1
"57795",1983415,"china","jiulong",22.32,114.17,"0",NA,0
"57794",1970382,"guinea","conakry",9.55,-13.67,"1",NA,1
"57793",1967879,"uzbekistan","tashkent",41.31,69.3,"1",NA,1
"57792",1955804,"china","jilin",43.85,126.55,"0",NA,0
"57791",1952029,"ecuador","guayaquil",-2.21,-79.9,"0",NA,1
"57790",1934445,"china","nanchang",28.68,115.88,"3",NA,0
"57789",1921589,"yemenrep","san'a",15.38,44.21,"1",NA,1
"57788",1901271,"india","indore",22.72,75.86,"0",NA,0
"57787",1895505,"japan","sapporo",43.06,141.34,"0",NA,0
"57786",1894655,"china","hangzhou",30.25,120.17,"3",NA,0
"57785",1891999,"australia","brisbane",-27.46,153.02,"0",NA,0
"57784",1862930,"romania","bucharest",44.44,26.1,"1",NA,1
"57783",1844447,"mexico","ecatepec",19.6,-99.05,"0",NA,0
"57782",1839314,"canada","vancouver",49.28,-123.13,"0",NA,0
"57781",1808937,"venezuelarb","caracas",10.54,-66.93,"1",NA,0
"57780",1793197,"pakistan","rawalpindi",33.6,73.04,"0",NA,0
"57779",1766824,"southafrica","soweto",-26.28,27.84,"0",NA,0
"57778",1757817,"indonesia","medan",3.59,98.67,"0",NA,0
"57777",1747482,"belarus","minsk",53.91,27.55,"1",NA,1
"57776",1746484,"brazil","curitiba",-25.42,-49.29,"0",NA,0
"57775",1743891,"germany","hamburg",53.55,10,"0",NA,0
"57774",1700019,"hungary","budapest",47.51,19.08,"1",NA,1
"57773",1688738,"morocco","rabat",34.02,-6.84,"1",NA,0
"57772",1687779,"southafrica","pretoria",-25.73,28.22,"1",NA,0
"57771",1676048,"indonesia","bandung",-6.91,107.6,"0",NA,0
"57770",1673131,"cambodia","phnumpenh",11.57,104.92,"1",NA,1
"57769",1668503,"china","qingdao",36.07,120.32,"0",NA,0
"57768",1660126,"india","patna",25.62,85.13,"0",NA,0
"57767",1653171,"china","xinyang",32.13,114.07,"0",NA,0
"57766",1643049,"india","bhopal",23.24,77.4,"0",NA,0
"57765",1642982,"brazil","manaus",-3.12,-60.02,"0",NA,0
"57764",1637213,"mexico","guadalajara",20.67,-103.35,"0",NA,0
"57763",1634441,"poland","warsaw",52.26,21.02,"1",NA,1
"57762",1626638,"sudan","al-hartumbahri",15.64,32.52,"0",NA,0
"57761",1626218,"syrianarabrepublic","aleppo",36.23,37.17,"0",NA,1
"57760",1619164,"nigeria","kaduna",10.52,7.44,"0",NA,0
"57759",1610214,"china","tangshan",39.62,118.19,"0",NA,0
"57758",1591485,"spain","barcelona",41.4,2.17,"0",NA,0
"57757",1584743,"india","ludhiana",30.91,75.84,"0",NA,0
"57756",1580909,"syrianarabrepublic","damascus",33.5,36.32,"1",NA,0
"57755",1575127,"zimbabwe","harare",-17.82,31.05,"1",NA,1
"57754",1573378,"iranislamicrep","esfahan",32.68,51.68,"0",NA,0
"57753",1570976,"austria","vienna",48.22,16.37,"1",NA,1
"57752",1569289,"indonesia","bekasi",-6.22,106.97,"0",NA,0
"57751",1548351,"india","thana",19.2,72.97,"0",NA,0
"57750",1538778,"china","urumqi",43.8,87.58,"3",NA,0
"57749",1535478,"ghana","kumasi",6.69,-1.63,"0",NA,0
"57748",1535384,"japan","kobe",34.68,135.17,"0",NA,0
"57747",1523085,"iranislamicrep","karaj",35.8,50.97,"0",NA,0
"57746",1516276,"china","kaohsiung",22.63,120.27,"0",NA,0
"57745",1495342,"korearep","taejon",36.33,127.43,"0",NA,0
"57744",1489055,"brazil","recife",-8.08,-34.92,"0",NA,0
"57743",1482359,"malaysia","kualalumpur",3.16,101.71,"1",NA,1
"57742",1475091,"india","agra",27.19,78.01,"0",NA,0
"57741",1472075,"australia","perth",-31.96,115.84,"0",NA,0
"57740",1471978,"pakistan","multan",30.2,71.45,"0",NA,0
"57739",1463754,"madagascar","antananarivo",-18.89,47.51,"1",NA,1
"57738",1460961,"iranislamicrep","tabriz",38.08,46.3,"0",NA,0
"57737",1458459,"turkey","bursa",40.2,29.08,"0",NA,0
"57736",1458183,"japan","kyoto",35.01,135.75,"0",NA,0
"57735",1452055,"vietnam","hanoi",21.03,105.84,"1",NA,0
"57734",1450884,"unitedstates","phoenix",33.54,-112.07,"0",NA,0
"57733",1442911,"argentina","cordoba",-31.4,-64.19,"0",NA,0
"57732",1439814,"unitedstates","philadelphia",40.01,-75.13,"0",NA,0
"57731",1436287,"brazil","belem",-1.44,-48.5,"0",NA,0
"57730",1435716,"india","vadodara",22.31,73.18,"0",NA,0
"57729",1431171,"china","lanzhou",36.05,103.68,"3",NA,0
"57728",1427118,"mexico","tijuana",32.53,-117.02,"0",NA,0
"57727",1425001,"congodemrep","lubumbashi",-11.66,27.48,"0",NA,0
"57726",1421834,"pakistan","gujranwala",32.16,74.18,"0",NA,0
"57725",1421205,"ukraine","kharkiv",49.98,36.22,"0",NA,0
"57724",1421142,"venezuelarb","valencia",10.23,-67.98,"0",NA,0
"57723",1417107,"russianfederation","novosibirsk",55.04,82.93,"0",NA,0
"57722",1417082,"pakistan","hyderabad",25.38,68.37,"0",NA,0
"57721",1410771,"china","fushun",41.87,123.88,"0",NA,0
"57720",1406741,"china","hefei",31.85,117.28,"3",NA,0
"57719",1405405,"colombia","barranquilla",10.96,-74.8,"0",NA,0
"57718",1404609,"bolivia","santacruz",-17.77,-63.21,"0",NA,1
"57717",1403619,"uganda","kampala",0.32,32.58,"1",NA,1
"57716",1402674,"japan","fukuoka",33.59,130.41,"0",NA,0
"57715",1402600,"indonesia","tangerang",-6.18,106.63,"0",NA,0
"57714",1399814,"ecuador","quito",-0.19,-78.5,"1",NA,0
"57713",1380983,"brazil","portoalegre",-30.04,-51.22,"0",NA,0
"57712",1371448,"cameroon","douala",4.06,9.71,"0",NA,1
"57711",1371363,"bangladesh","khulna",22.84,89.56,"0",NA,0
"57710",1370361,"china","shantou",23.37,116.67,"0",NA,0
"57709",1369601,"china","handan",36.58,114.48,"0",NA,0
"57708",1366010,"india","pimpri",18.62,73.8,"0",NA,0
"57707",1353480,"saudiarabia","mecca",21.43,39.82,"0",NA,0
"57706",1351104,"indonesia","makasar",-5.14,119.41,"0",NA,0
"57705",1348872,"india","nashik",20.01,73.78,"0",NA,0
"57704",1344617,"cameroon","yaounde",3.87,11.52,"1",NA,0
"57703",1344436,"india","faridabad",28.38,77.3,"0",NA,0
"57702",1342519,"mali","bamako",12.65,-7.99,"1",NA,1
"57701",1326975,"congorep","brazzaville",-4.25,15.26,"1",NA,1
"57700",1321432,"china","xianggangdao",22.27,114.14,"0",NA,0
"57699",1316218,"italy","milan",45.48,9.19,"0",NA,0
"57698",1306577,"zambia","lusaka",-15.42,28.29,"1",NA,1
"57697",1306343,"korearep","suwon",37.26,127.01,"0",NA,0
"57696",1303197,"jordan","'amman",31.95,35.93,"1",NA,1
"57695",1301768,"china","baotou",40.6,110.05,"0",NA,0
"57694",1300684,"korearep","koyang",37.7,126.93,"0",NA,0
"57693",1299352,"unitedstates","sandiego",32.81,-117.14,"0",NA,0
"57692",1287754,"indonesia","semarang",-6.97,110.42,"0",NA,0
"57691",1285879,"russianfederation","yekaterinburg",56.85,60.6,"0",NA,0
"57690",1279140,"iranislamicrep","shiraz",29.63,52.57,"0",NA,0
"57689",1278933,"india","kalyan",19.25,73.16,"0",NA,0
"57688",1278171,"unitedstates","sanantonio",29.46,-98.51,"0",NA,0
"57687",1277104,"haiti","port-au-prince",18.54,-72.34,"1",NA,1
"57686",1275318,"russianfederation","nizhniynovgorod",56.33,44,"0",NA,0
"57685",1273440,"lebanon","bayrut",33.88,35.5,"1",NA,1
"57684",1272179,"germany","munich",48.14,11.58,"0",NA,0
"57683",1271894,"turkey","adana",37,35.32,"0",NA,0
"57682",1271664,"uruguay","montevideo",-34.87,-56.17,"1",NA,1
"57681",1264968,"india","ghaziabad",28.66,77.41,"0",NA,0
"57680",1262757,"india","mirat",28.99,77.7,"0",NA,0
"57679",1260712,"sweden","stockholm",59.33,18.07,"1",NA,1
"57678",1253687,"pakistan","peshawar",34.01,71.54,"0",NA,0
"57677",1252010,"lebanon","beirut",33.8719444,35.5097222,"1","4",0
"57676",1249543,"indonesia","palembang",-2.99,104.75,"0",NA,0
"57675",1245382,"philippines","davao",7.11,125.63,"0",NA,0
"57674",1237157,"india","rajkot",22.31,70.79,"0",NA,0
"57673",1237028,"myanmar","mandalay",21.98,96.09,"0",NA,0
"57672",1231240,"china","xuzhou",34.27,117.18,"0",NA,0
"57671",1230816,"mexico","nezahualcoyotl",19.41,-99.03,"0",NA,0
"57670",1220167,"mozambique","maputo",-25.95,32.57,"1",NA,1
"57669",1216543,"unitedstates","dallas",32.79,-96.77,"0",NA,0
"57668",1216378,"kazakhstan","almaty",43.32,76.92,"0",NA,1
"57667",1203894,"china","anshan",41.12,122.95,"0",NA,0
"57666",1202136,"china","fuzhou",26.08,119.3,"3",NA,0
"57665",1198633,"brazil","guarulhos",-23.46,-46.49,"0",NA,0
"57664",1188787,"brazil","goiania",-16.72,-49.26,"0",NA,0
"57663",1183692,"china","guiyang",26.58,106.72,"3",NA,0
"57662",1182439,"unitedarabemirates","dubai",25.27,55.33,"0",NA,1
"57661",1179484,"india","varanasi",25.32,83.01,"0",NA,0
"57660",1177191,"nigeria","portharcourt",4.78,7,"0",NA,0
"57659",1176177,"argentina","rosario",-32.94,-60.67,"0",NA,0
"57658",1168374,"czechrepublic","prague",50.08,14.43,"1",NA,1
"57657",1166143,"bulgaria","sofia",42.69,23.31,"1",NA,1
"57656",1164634,"libya","tripoli",32.87,13.18,"1",NA,1
"57655",1155094,"nigeria","maiduguri",11.85,13.16,"0",NA,0
"57654",1147357,"japan","hiroshima",34.39,132.44,"0",NA,0
"57653",1147188,"nigeria","benin",6.34,5.62,"0",NA,0
"57652",1139609,"china","wuxi",31.58,120.3,"0",NA,0
"57651",1134232,"mexico","leon",21.12,-101.69,"0",NA,0
"57650",1127864,"russianfederation","omsk",55,73.4,"0",NA,0
"57649",1127228,"russianfederation","samara",53.2,50.15,"0",NA,0
"57648",1123777,"mexico","monterrey",25.67,-100.32,"0",NA,0
"57647",1123365,"india","amritsar",31.64,74.87,"0",NA,0
"57646",1119775,"burkinafaso","ouagadougou",12.37,-1.53,"1",NA,1
"57645",1118725,"azerbaijan","baku",40.39,49.86,"1",NA,1
"57644",1113589,"serbia","belgrade",44.83,20.5,"1",NA,1
"57643",1104802,"russianfederation","kazan",55.75,49.13,"0",NA,0
"57642",1103794,"china","taichung",24.15,120.68,"0",NA,0
"57641",1102364,"turkey","gaziantep",37.07,37.39,"0",NA,0
"57640",1094199,"india","allahabad",25.45,81.84,"0",NA,0
"57639",1091978,"denmark","copenhagen",55.68,12.57,"1",NA,1
"57638",1090537,"armenia","yerevan",40.17,44.52,"1",NA,1
"57637",1088954,"japan","saitama",35.87,139.64,"0",NA,0
"57636",1087237,"india","visakhapatnam",17.73,83.3,"0",NA,0
"57635",1076969,"australia","adelaide",-34.93,138.6,"0",NA,0
"57634",1076897,"russianfederation","rostov-na-donu",47.24,39.71,"0",NA,0
"57633",1075754,"china","huainan",32.63,116.98,"0",NA,0
"57632",1072093,"china","shenzhen",22.53,114.13,"0",NA,0
"57631",1058281,"russianfederation","chelyabinsk",55.15,61.43,"0",NA,0
"57630",1055317,"china","xianyang",34.37,108.7,"0",NA,0
"57629",1052440,"korearep","songnam",37.44,127.15,"0",NA,0
"57628",1049768,"india","jabalpur",23.17,79.94,"0",NA,0
"57627",1047239,"brazil","campinas",-22.91,-47.08,"0",NA,0
"57626",1046578,"iranislamicrep","qom",34.65,50.95,"0",NA,0
"57625",1044356,"china","kunming",25.05,102.7,"3",NA,0
"57624",1038343,"georgia","tbilisi",41.72,44.79,"1",NA,1
"57623",1031925,"belgium","brussels",50.83,4.33,"1",NA,1
"57622",1031223,"india","haora",22.58,88.33,"0",NA,0
"57621",1030655,"india","sholapur",17.67,75.89,"0",NA,0
"57620",1030431,"ireland","dublin",53.33,-6.25,"1",NA,1
"57619",1030423,"russianfederation","ufa",54.78,56.04,"0",NA,0
"57618",1027984,"china","baoding",38.87,115.48,"0",NA,0
"57617",1025044,"ukraine","dnipropetrovs'k",48.45,34.98,"0",NA,0
"57616",1019753,"brazil","novaiguacu",-22.74,-43.47,"0",NA,0
"57615",1011025,"china","benxi",41.33,123.75,"0",NA,0
"57614",1010253,"guatemala","guatemala",14.63,-90.55,"1",NA,1
"57613",1010221,"russianfederation","volgograd",48.71,44.48,"0",NA,0
"57612",1005975,"egyptarabrep","shubra-el-khema",30.11,31.25,"0",NA,0
"57611",1003742,"mexico","zapopan",20.72,-103.4,"0",NA,0
"57610",998032,"nigeria","zaria",11.08,7.71,"0",NA,0
"57609",996400,"india","srinagar",34.09,74.79,"0",NA,0
"57608",995028,"ukraine","odesa",46.47,30.73,"0",NA,0
"57607",994767,"japan","kitakyushu",33.88,130.86,"0",NA,0
"57606",992669,"southafrica","portelizabeth",-33.96,25.59,"0",NA,0
"57605",991432,"canada","calgary",51.05,-114.06,"0",NA,0
"57604",990417,"nicaragua","managua",12.15,-86.27,"1",NA,1
"57603",989318,"brazil","maceio",-9.65,-35.75,"0",NA,0
"57602",986969,"unitedkingdom","birmingham",52.48,-1.91,"0",NA,0
"57601",983614,"italy","naples",40.85,14.27,"0",NA,0
"57600",983226,"morocco","fez",34.05,-5,"0",NA,0
"57599",983199,"korearep","ulsan",35.55,129.31,"0",NA,0
"57598",980419,"ukraine","donetsk",48,37.82,"0",NA,0
"57597",979458,"india","navimumbai",19.11,73.06,"0",NA,0
"57596",976761,"colombia","cartagena",10.4,-75.5,"0",NA,0
"57595",976116,"russianfederation","perm",58,56.25,"0",NA,0
"57594",975218,"saudiarabia","al-madinah",24.48,39.59,"0",NA,0
"57593",973208,"guatemala","guatemalacity",14.621111,-90.526944,"1","7",0
"57592",970602,"india","ranchi",23.36,85.33,"0",NA,0
"57591",968524,"india","koyampattur",11.01,76.96,"0",NA,0
"57590",963755,"china","changzhou",31.78,119.97,"0",NA,0
"57589",962936,"iraq","irbil",36.19,44.02,"0",NA,0
"57588",960974,"germany","cologne",50.95,6.97,"0",NA,0
"57587",954458,"liberia","monrovia",6.31,-10.8,"1",NA,1
"57586",954266,"malaysia","subangjaya",3.15,101.53,"0",NA,0
"57585",949783,"brazil","saogoncalo",-22.84,-43.07,"0",NA,0
"57584",942769,"india","chandigarh",30.75,76.78,"0",NA,0
"57583",940665,"congodemrep","kolwezi",-10.7,25.66,"0",NA,0
"57582",940513,"india","jodhpur",26.29,73.02,"0",NA,0
"57581",936664,"malaysia","klang",3.04,101.45,"0",NA,0
"57580",935083,"brazil","saoluis",-2.5,-44.3,"0",NA,0
"57579",932871,"bolivia","cochabamba",-17.38,-66.17,"0",NA,0
"57578",932185,"china","huaibei",33.95,116.75,"0",NA,0
"57577",931872,"nigeria","aba",5.1,7.35,"0",NA,0
"57576",926276,"japan","chiba",35.61,140.11,"0",NA,0
"57575",923348,"india","guwahati",26.19,91.75,"0",NA,0
"57574",915625,"kyrgyzrepublic","biskek",42.87,74.57,"1",NA,1
"57573",906949,"russianfederation","krasnoyarsk",56.02,93.06,"0",NA,0
"57572",905649,"india","madurai",9.92,78.12,"0",NA,0
"57571",903797,"turkey","konya",37.88,32.48,"0",NA,0
"57570",902986,"india","maisuru",12.31,76.65,"0",NA,0
"57569",902797,"nigeria","ogbomosho",8.08,4.18,"0",NA,0
"57568",897883,"unitedstates","sanjose",37.3,-121.85,"0",NA,0
"57567",896435,"congodemrep","mbuji-mayi",-6.13,23.59,"0",NA,0
"57566",895900,"india","gwalior",26.23,78.17,"0",NA,0
"57565",894833,"china","qiqihar",47.35,124,"0",NA,0
"57564",893814,"china","pingdingshan",33.73,113.3,"0",NA,0
"57563",886519,"india","vijayawada",16.52,80.63,"0",NA,0
"57562",885542,"canada","ottawa",45.42,-75.71,"1",NA,0
"57561",883827,"argentina","mendoza",-32.89,-68.83,"0",NA,0
"57560",873290,"china","wenzhou",28.02,120.65,"0",NA,0
"57559",873123,"italy","turin",45.08,7.68,"0",NA,0
"57558",872403,"honduras","tegucigalpa",14.09,-87.22,"1",NA,1
"57557",872211,"bolivia","elalto",-16.5,-68.17,"0",NA,0
"57556",871789,"unitedstates","detroit",42.38,-83.1,"0",NA,0
"57555",869534,"indonesia","padang",-0.95,100.35,"0",NA,0
"57554",862842,"mongolia","ulaanbaatar",47.93,106.91,"1",NA,1
"57553",860796,"russianfederation","saratov",51.57,46.03,"0",NA,0
"57552",859704,"peru","arequipa",-16.39,-71.53,"0",NA,0
"57551",855592,"morocco","marrakesh",31.63,-8,"0",NA,0
"57550",853730,"india","hubli",15.36,75.13,"0",NA,0
"57549",847600,"mexico","naucalpan",19.48,-99.23,"0",NA,0
"57548",841145,"iranislamicrep","ahvaz",31.28,48.72,"0",NA,0
"57547",840243,"korearep","puchon",37.48,126.77,"0",NA,0
"57546",839334,"nigeria","jos",9.93,8.89,"0",NA,0
"57545",838947,"malaysia","johorbahru",1.48,103.75,"0",NA,0
"57544",837946,"russianfederation","voronezh",51.72,39.26,"0",NA,0
"57543",831979,"canada","edmonton",53.57,-113.54,"0",NA,0
"57542",831676,"nigeria","ilorin",8.5,4.53,"0",NA,0
"57541",830000,"ukraine","lvov",49.840661,24.030451,NA,"15",0
"57540",829012,"brazil","duquedecaxias",-22.77,-43.31,"0",NA,0
"57539",828507,"indonesia","bandarlampung",-5.44,105.27,"0",NA,0
"57538",823500,"kenya","mombasa",-4.04,39.66,"0",NA,0
"57537",823013,"turkmenistan","asgabat",37.95,58.38,"1",NA,1
"57536",822930,"nepal","kathmandu",27.71,85.31,"1",NA,1
"57535",821445,"norway","oslo",59.91,10.75,"1",NA,1
"57534",821253,"venezuelarb","barquisimeto",10.05,-69.3,"0",NA,0
"57533",818709,"sierraleone","freetown",8.49,-13.24,"1",NA,1
"57532",817032,"bolivia","lapaz",-16.5,-68.15,"0",NA,0
"57531",814296,"philippines","cebu",10.32,123.9,"0",NA,0
"57530",807409,"india","jalandhar",31.33,75.57,"0",NA,0
"57529",805718,"china","nanning",22.82,108.32,"3",NA,0
"57528",803438,"spain","valencia",39.48,-0.39,"0",NA,0
"57527",801297,"niger","niamey",13.52,2.12,"1",NA,1
"57526",801137,"india","selam",11.67,78.16,"0",NA,0
"57525",800003,"rwanda","kigali",-1.94,30.06,"1",NA,1
"57524",798781,"syrianarabrepublic","hims",34.73,36.72,"0",NA,0
"57523",797759,"southafrica","pietermaritzburg",-29.61,30.39,"0",NA,0
"57522",794431,"pakistan","islamabad",33.72,73.06,"1",NA,0
"57521",794039,"india","bhubaneswar",20.27,85.84,"0",NA,0
"57520",793841,"india","thiruvananthapuram",8.51,76.95,"0",NA,0
"57519",793553,"saudiarabia","ad-dammam",26.43,50.1,"0",NA,0
"57518",793352,"france","marseille",43.31,5.37,"0",NA,0
"57517",792373,"turkey","antalya",36.89,30.71,"0",NA,0
"57516",792365,"argentina","tucuman",-26.83,-65.22,"0",NA,0
"57515",792081,"china","anyang",36.08,114.35,"0",NA,0
"57514",791626,"ukraine","zaporizhzhya",47.85,35.17,"0",NA,0
"57513",787375,"china","taian",36.2,117.12,"0",NA,0
"57512",785354,"indonesia","bogor",-6.58,106.79,"0",NA,0
"57511",783645,"china","hohhot",40.82,111.64,"3",NA,0
"57510",782442,"india","tiruchchirappalli",10.81,78.69,"0",NA,0
"57509",780296,"india","kota",25.18,75.83,"0",NA,0
"57508",777519,"china","qinhuangdao",39.93,119.62,"0",NA,0
"57507",775694,"india","aligarh",27.89,78.06,"0",NA,0
"57506",774336,"brazil","natal",-5.8,-35.22,"0",NA,0
"57505",772579,"china","liuzhou",24.28,109.25,"0",NA,0
"57504",771729,"nigeria","oyo",7.83,3.92,"0",NA,0
"57503",771725,"unitedstates","indianapolis",39.78,-86.15,"0",NA,0
"57502",770872,"china","xining",36.62,101.77,"3",NA,0
"57501",769243,"venezuelarb","ciudadguayana",8.37,-62.62,"0",NA,0
"57500",768267,"peru","trujillo",-8.11,-79.03,"0",NA,0
"57499",765075,"iranislamicrep","kermanshah",34.38,47.06,"0",NA,0
"57498",762615,"poland","lodz",51.77,19.46,"0",NA,0
"57497",761888,"china","hengyang",26.89,112.62,"0",NA,0
"57496",759894,"pakistan","quetta",30.21,67.02,"0",NA,0
"57495",758666,"brazil","teresina",-5.1,-42.8,"0",NA,0
"57494",756432,"india","bareli",28.36,79.41,"0",NA,0
"57493",756260,"brazil","saobernardodocampo",-23.71,-46.54,"0",NA,0
"57492",753829,"poland","cracow",50.06,19.96,"0",NA,0
"57491",753760,"china","hegang",47.4,130.37,"0",NA,0
"57490",749593,"indonesia","malang",-7.98,112.62,"0",NA,0
"57489",748150,"iraq","as-sulaymaniyah",35.55,45.45,"0",NA,0
"57488",747060,"china","xinxiang",35.32,113.87,"0",NA,0
"57487",745017,"brazil","campogrande",-20.45,-54.63,"0",NA,0
"57486",744159,"netherlands","amsterdam",52.37,4.89,"1",NA,1
"57485",742090,"india","moradabad",28.84,78.76,"0",NA,0
"57484",740957,"colombia","cucuta",7.88,-72.51,"0",NA,0
"57483",740249,"china","yantai",37.53,121.4,"0",NA,0
"57482",740038,"india","mirabhayandar",19.29,72.85,"0",NA,0
"57481",738386,"latvia","riga",56.97,24.13,"1",NA,1
"57480",737751,"togo","lome",6.17,1.35,"1",NA,1
"57479",737350,"bosniaandherzegovina","sarajevo",43.85,18.38,"1",NA,1
"57478",737281,"chad","n'djamena",12.11,15.05,"1",NA,1
"57477",736978,"india","bhiwandi",19.3,73.05,"0",NA,0
"57476",735787,"china","tainan",23,120.19,"0",NA,0
"57475",731731,"israel","jerusalem",31.78,35.22,"1",NA,1
"57474",731242,"mauritania","nouakchott",18.09,-15.98,"1",NA,1
"57473",729890,"brazil","jaboatao",-8.11,-35.02,"0",NA,0
"57472",729337,"korearep","chonju",35.83,127.14,"0",NA,0
"57471",728271,"mexico","merida",20.97,-89.62,"0",NA,0
"57470",726201,"china","ningbo",29.88,121.55,"0",NA,0
"57469",726100,"china","langfang",39.52,116.68,"0",NA,0
"57468",726070,"china","zhangjiakou",40.83,114.93,"0",NA,0
"57467",725049,"greece","athens",37.98,23.73,"1",NA,1
"57466",723927,"russianfederation","tolyatti",53.48,49.51,"0",NA,0
"57465",723724,"unitedstates","sanfrancisco",37.77,-122.45,"0",NA,0
"57464",718551,"mexico","chihuahua",28.63,-106.08,"0",NA,0
"57463",718498,"morocco","agadir",30.42,-9.61,"0",NA,0
"57462",715026,"mexico","tlalnepantla",19.54,-99.19,"0",NA,0
"57461",714131,"ukraine","l'viv",49.83,24,"0",NA,0
"57460",713533,"bangladesh","rajshahi",24.37,88.59,"0",NA,0
"57459",713443,"canada","mississauga",43.6,-79.65,"0",NA,0
"57458",711493,"china","zhuzhou",27.83,113.15,"0",NA,0
"57457",708847,"china","changzhi",35.22,111.75,"0",NA,0
"57456",708271,"korearep","shihung",37.46,126.89,"0",NA,0
"57455",707417,"morocco","tangier",35.79,-5.81,"0",NA,0
"57454",706492,"zimbabwe","bulawayo",-20.17,28.58,"0",NA,0
"57453",702516,"spain","sevilla",37.4,-5.98,"0",NA,0
"57452",701848,"china","liaoyang",41.28,123.18,"0",NA,0
"57451",701137,"benin","cotonou",6.36,2.44,"0",NA,1
"57450",700717,"croatia","zagreb",45.8,15.97,"1",NA,1
"57449",700506,"japan","shizuoka",34.98,138.39,"0",NA,0
"57448",699683,"india","raipur",21.24,81.63,"0",NA,0
"57447",697988,"china","puyang",35.7,114.98,"0",NA,0
"57446",697355,"china","huangshi",30.22,115.1,"0",NA,0
"57445",696856,"argentina","laplata",-34.92,-57.96,"0",NA,0
"57444",693294,"tunisia","tunis",36.84,10.22,"1",NA,1
"57443",692247,"malaysia","ipoh",4.6,101.07,"0",NA,0
"57442",691930,"china","zigong",29.4,104.78,"0",NA,0
"57441",690689,"yemenrep","ta'izz",13.6,44.04,"0",NA,0
"57440",687623,"mexico","sanluispotosi",22.16,-100.98,"0",NA,0
"57439",686562,"india","gorakhpur",26.76,83.36,"0",NA,0
"57438",684505,"japan","kumamoto",32.8,130.71,"0",NA,0
"57437",684040,"brazil","osasco",-23.53,-46.78,"0",NA,0
"57436",683621,"congorep","pointenoire",-4.77,11.87,"0",NA,0
"57435",683477,"malawi","lilongwe",-13.97,33.8,"1",NA,1
"57434",683404,"unitedstates","austin",30.31,-97.75,"0",NA,0
"57433",682053,"malaysia","ampangjaya",3.15,101.77,"0",NA,0
"57432",677741,"indonesia","pekanbaru",0.56,101.43,"0",NA,0
"57431",677315,"yemenrep","al-hudaydah",14.8,42.95,"0",NA,0
"57430",676218,"china","xiangtan",27.85,112.9,"0",NA,0
"57429",675831,"china","mudanjiang",44.58,129.6,"0",NA,0
"57428",673696,"china","zhangdian",36.8,118.06,"0",NA,0
"57427",671584,"mexico","aguascalientes",21.88,-102.3,"0",NA,0
"57426",671501,"nigeria","enugu",6.33,7.5,"0",NA,0
"57425",670048,"china","guilin",25.28,110.28,"0",NA,0
"57424",669817,"china","nantong",32.02,120.82,"0",NA,0
"57423",668533,"korearep","ansan",37.35,126.86,"0",NA,0
"57422",668275,"italy","palermo",38.12,13.36,"0",NA,0
"57421",665699,"turkey","diyarbakir",37.92,40.23,"0",NA,0
"57420",665689,"libya","benghazi",32.12,20.07,"0",NA,0
"57419",664670,"brazil","santoandre",-23.65,-46.53,"0",NA,0
"57418",663558,"china","foshan",23.03,113.12,"0",NA,0
"57417",662337,"brazil","joaopessoa",-7.12,-34.86,"0",NA,0
"57416",662208,"china","shatian",22.38,114.19,"0",NA,0
"57415",661942,"canada","hamilton",43.26,-79.85,"0",NA,0
"57414",658347,"mexico","acapulco",16.85,-99.92,"0",NA,0
"57413",658290,"china","zhanjiang",21.2,110.38,"0",NA,0
"57412",658186,"spain","zaragoza",41.65,-0.89,"0",NA,0
"57411",657699,"japan","sagamihara",35.58,139.38,"0",NA,0
"57410",657622,"china","shaoyang",27,111.2,"0",NA,0
"57409",656561,"china","shaoguan",24.8,113.58,"0",NA,0
"57408",653124,"indonesia","yogyakarta",-7.78,110.37,"0",NA,0
"57407",651249,"russianfederation","krasnodar",45.03,38.98,"0",NA,0
"57406",649496,"srilanka","colombo",6.93,79.85,"1",NA,1
"57405",648399,"ukraine","kryvyyrih",47.92,33.35,"0",NA,0
"57404",647916,"canada","quebec",46.82,-71.23,"0",NA,0
"57403",646211,"brazil","contagem",-19.91,-44.1,"0",NA,0
"57402",643975,"india","bhilai",21.21,81.38,"0",NA,0
"57401",643591,"korearep","chongju",36.64,127.5,"0",NA,0
"57400",643315,"korearep","anyang",37.39,126.92,"0",NA,0
"57399",643176,"china","dandong",40.13,124.4,"0",NA,0
"57398",642498,"algeria","wahran",35.7,-0.62,"0",NA,0
"57397",642279,"japan","okayama",34.67,133.92,"0",NA,0
"57396",642257,"russianfederation","ulyanovsk",54.33,48.4,"0",NA,0
"57395",639839,"china","xingtai",37.07,114.49,"0",NA,0
"57394",639736,"unitedstates","memphis",35.11,-90.01,"0",NA,0
"57393",639632,"china","panjin",41.18,122.05,"0",NA,0
"57392",637712,"southafrica","benoni",-26.15,28.33,"0",NA,0
"57391",635937,"china","zhenjiang",32.22,119.43,"0",NA,0
"57390",633884,"djibouti","jibuti",11.56,43.15,"1",NA,1
"57389",633849,"unitedstates","fortworth",32.75,-97.34,"0",NA,0
"57388",633414,"mexico","saltillo",25.42,-101,"0",NA,0
"57387",633276,"poland","wroclaw",51.11,17.03,"0",NA,0
"57386",632857,"canada","winnipeg",49.88,-97.17,"0",NA,0
"57385",631805,"china","yancheng",33.39,120.12,"0",NA,0
"57384",630755,"russianfederation","izhevsk",56.85,53.23,"0",NA,0
"57383",630107,"brazil","saojosedoscampos",-23.2,-45.88,"0",NA,0
"57382",627761,"india","jamshedpur",22.79,86.2,"0",NA,0
"57381",627721,"mexico","queretaro",20.59,-100.4,"0",NA,0
"57380",626766,"turkey","mersin",36.81,34.63,"0",NA,0
"57379",625361,"yemenrep","aden",12.79,45.03,"0",NA,0
"57378",623671,"moldova","chisinau",47.03,28.83,"1",NA,1
"57377",623143,"iranislamicrep","orumiyeh",37.53,45,"0",NA,0
"57376",619316,"unitedarabemirates","abudhabi",24.48,54.37,"1",NA,0
"57375",618589,"iranislamicrep","rasht",37.3,49.63,"0",NA,0
"57374",617885,"india","amravati",20.95,77.76,"0",NA,0
"57373",615633,"china","taizhou",32.49,119.9,"0",NA,0
"57372",615338,"mexico","chimalhuacan",19.44,-98.96,"0",NA,0
"57371",612277,"nigeria","abeokuta",7.16,3.35,"0",NA,0
"57370",611819,"vietnam","haiphong",20.86,106.68,"0",NA,0
"57369",610954,"iraq","kirkuk",35.47,44.41,"0",NA,0
"57368",610379,"china","zhangzhou",24.52,117.67,"0",NA,0
"57367",609786,"japan","hamamatsu",34.72,137.73,"0",NA,0
"57366",607192,"unitedkingdom","glasgow",55.87,-4.27,"0",NA,0
"57365",607111,"unitedstates","charlotte",35.2,-80.83,"0",NA,0
"57364",606967,"iranislamicrep","kerman",30.3,57.08,"0",NA,0
"57363",606419,"mexico","mexicali",32.65,-115.47,"0",NA,0
"57362",606231,"mexico","hermosillo",29.07,-110.97,"0",NA,0
"57361",606223,"india","kochi",10.02,76.22,"0",NA,0
"57360",606184,"india","kataka",20.47,85.88,"0",NA,0
"57359",604725,"russianfederation","yaroslavl",57.62,39.87,"0",NA,0
"57358",603693,"turkey","kayseri",38.74,35.48,"0",NA,0
"57357",603545,"unitedstates","elpaso",31.85,-106.44,"0",NA,0
"57356",602658,"unitedstates","baltimore",39.3,-76.61,"0",NA,0
"57355",602113,"malaysia","kuching",1.55,110.34,"0",NA,0
"57354",602090,"china","luancheng",37.88,114.65,"0",NA,0
"57353",601549,"mexico","morelia",19.72,-101.18,"0",NA,0
"57352",601381,"malawi","blantyre",-15.79,34.99,"0",NA,0
"57351",600352,"china","yingkou",40.67,122.28,"0",NA,0
"57350",599296,"russianfederation","barnaul",53.36,83.75,"0",NA,0
"57349",599064,"italy","genoa",44.42,8.93,"0",NA,0
"57348",597481,"netherlands","rotterdam",51.93,4.48,"0",NA,0
"57347",596204,"germany","essen",51.47,7,"0",NA,0
"57346",592372,"china","xiamen",24.45,118.08,"0",NA,0
"57345",592137,"peru","chiclayo",-6.76,-79.84,"0",NA,0
"57344",591356,"gabon","libreville",0.39,9.45,"1",NA,1
"57343",591064,"mexico","culiacan",24.8,-107.39,"0",NA,0
"57342",590367,"germany","stuttgart",48.79,9.19,"0",NA,0
"57341",588315,"japan","hachioji",35.66,139.33,"0",NA,0
"57340",587937,"india","bikaner",28.03,73.32,"0",NA,0
"57339",587233,"germany","dortmund",51.51,7.48,"0",NA,0
"57338",585300,"jamaica","kingston",17.99,-76.8,"1",NA,1
"57337",585037,"china","bengbu",32.95,117.33,"0",NA,0
"57336",584496,"russianfederation","vladivostok",43.13,131.9,"0",NA,0
"57335",584442,"russianfederation","irkutsk",52.33,104.24,"0",NA,0
"57334",583039,"nigeria","sokoto",13.07,5.24,"0",NA,0
"57333",582461,"cotedivoire","bouake",7.69,-5.03,"0",NA,0
"57332",581955,"china","shihezi",44.3,86.03,"0",NA,0
"57331",581579,"china","kaifeng",34.85,114.35,"0",NA,0
"57330",581573,"indonesia","banjarmasin",-3.33,114.59,"0",NA,0
"57329",581337,"colombia","bucaramanga",7.13,-73.13,"0",NA,0
"57328",580576,"brazil","uberlandia",-18.9,-48.28,"0",NA,0
"57327",578860,"eritrea","asmara",15.33,38.94,"1",NA,1
"57326",576745,"russianfederation","khabarovsk",48.42,135.12,"0",NA,0
"57325",576597,"mexico","cancun",21.17,-86.83,"0",NA,0
"57324",576589,"nigeria","onitsha",6.16,6.78,"0",NA,0
"57323",576203,"pakistan","bahawalpur",29.39,71.67,"0",NA,0
"57322",575804,"china","siping",43.17,124.33,"0",NA,0
"57321",575250,"unitedstates","milwaukee",43.06,-87.97,"0",NA,0
"57320",574844,"mexico","veracruz",19.19,-96.14,"0",NA,0
"57319",573728,"brazil","sorocaba",-23.49,-47.47,"0",NA,0
"57318",573521,"germany","dusseldorf",51.24,6.79,"0",NA,0
"57317",572535,"dominicanrepublic","santiago",19.48,-70.69,"0",NA,0
"57316",571175,"china","yuanlong",22.44,114.02,"0",NA,0
"57315",570430,"unitedstates","seattle",47.62,-122.35,"0",NA,0
"57314",570389,"iranislamicrep","zahedan",29.5,60.83,"0",NA,0
"57313",567957,"poland","poznan",52.4,16.9,"0",NA,0
"57312",567759,"unitedstates","boston",42.34,-71.02,"0",NA,0
"57311",566241,"india","bhavnagar",21.79,72.13,"0",NA,0
"57310",564826,"india","warangal",18.01,79.58,"0",NA,0
"57309",564620,"unitedarabemirates","sharjah",25.37,55.41,"0",NA,0
"57308",564522,"koreademrep","hamhung",39.91,127.54,"0",NA,0
"57307",563001,"cuba","santiagodecuba",20.01,-75.82,"0",NA,0
"57306",562813,"japan","funabashi",35.7,139.99,"0",NA,0
"57305",560393,"brazil","ribeiraopreto",-21.17,-47.8,"0",NA,0
"57304",558341,"finland","helsinki",60.17,24.94,"1",NA,1
"57303",558201,"china","huaiyin",33.58,119.03,"0",NA,0
"57302",557628,"indonesia","surakarta",-7.57,110.82,"0",NA,0
"57301",556940,"mozambique","matola",-25.97,32.46,"0",NA,0
"57300",556575,"unitedstates","denver",39.77,-104.87,"0",NA,0
"57299",556477,"argentina","mardelplata",-38,-57.58,"0",NA,0
"57298",556069,"japan","kagoshima",31.59,130.56,"0",NA,0
"57297",555248,"morocco","meknes",33.9,-5.56,"0",NA,0
"57296",554612,"china","jiamusi",46.83,130.35,"0",NA,0
"57295",554547,"pakistan","sargodha",32.08,72.67,"0",NA,0
"57294",553916,"spain","malaga",36.72,-4.42,"0",NA,0
"57293",553807,"unitedstates","lasvegas",36.21,-115.22,"0",NA,0
"57292",553611,"china","jiangmen",22.58,113.08,"0",NA,0
"57291",550552,"russianfederation","orenburg",51.78,55.1,"0",NA,0
"57290",549723,"china","tanggu",39,117.67,"0",NA,0
"57289",548414,"china","neijiang",29.58,105.05,"0",NA,0
"57288",548359,"unitedstates","washington",38.91,-77.02,"1",NA,0
"57287",547915,"germany","bremen",53.08,8.81,"0",NA,0
"57286",547668,"centralafricanrepublic","bangui",4.36,18.56,"1",NA,1
"57285",547531,"congodemrep","kisangani",0.53,25.19,"0",NA,0
"57284",546776,"egyptarabrep","portsaid",31.26,32.29,"0",NA,0
"57283",546576,"nigeria","warri",5.51,5.75,"0",NA,0
"57282",545734,"china","maanshan",31.73,118.48,"0",NA,0
"57281",545724,"mozambique","beira",-19.83,34.84,"0",NA,0
"57280",544887,"china","cangzhou",38.32,116.87,"0",NA,0
"57279",543846,"southafrica","tembisa",-25.99,28.22,"0",NA,0
"57278",542604,"china","yangzhou",32.4,119.43,"0",NA,0
"57277",542267,"india","dehradun",30.34,78.05,"0",NA,0
"57276",542014,"lithuania","vilnius",54.7,25.27,"1",NA,1
"57275",540437,"saudiarabia","at-ta'if",21.26,40.38,"0",NA,0
"57274",538456,"tajikistan","dushanbe",38.57,68.78,"1",NA,1
"57273",538141,"unitedstates","oklahomacity",35.47,-97.51,"0",NA,0
"57272",536257,"russianfederation","novokuznetsk",53.75,87.1,"0",NA,0
"57271",536169,"korearep","changwon",35.27,128.62,"0",NA,0
"57270",535763,"malaysia","petalingjaya",3.1,101.62,"0",NA,0
"57269",535634,"china","changde",29.03,111.68,"0",NA,0
"57268",534409,"elsalvador","sansalvador",13.69,-89.19,"1",NA,1
"57267",534020,"india","guntur",16.31,80.44,"0",NA,0
"57266",532615,"mexico","lopezmateos",19.57,-99.26,"0",NA,0
"57265",532183,"sudan","niyala",12.06,24.89,"0",NA,0
"57264",531408,"brazil","cuiaba",-15.61,-56.09,"0",NA,0
"57263",529730,"china","yueyang",29.38,113.1,"0",NA,0
"57262",528261,"iranislamicrep","hamadan",34.77,48.58,"0",NA,0
"57261",528012,"mexico","torreon",25.55,-103.43,"0",NA,0
"57260",527749,"india","ulhasnagar",19.23,73.15,"0",NA,0
"57259",527223,"india","shiliguri",26.73,88.42,"0",NA,0
"57258",526026,"china","jiaozuo",35.25,113.22,"0",NA,0
"57257",525927,"india","ajmer",26.45,74.64,"0",NA,0
"57256",525268,"unitedstates","tucson",32.2,-110.89,"0",NA,0
"57255",525047,"india","durgapur",23.5,87.31,"0",NA,0
"57254",523878,"argentina","salta",-24.79,-65.41,"0",NA,0
"57253",523722,"india","kolhapur",16.7,74.22,"0",NA,0
"57252",523619,"nigeria","oshogbo",7.83,4.58,"0",NA,0
"57251",523547,"unitedstates","nashville",36.17,-86.78,"0",NA,0
"57250",523174,"australia","goldcoast",-28.07,153.44,"0",NA,0
"57249",521990,"russianfederation","tyumen",57.15,65.53,"0",NA,0
"57248",521800,"russianfederation","naberezhnyyechelny",55.69,52.32,"0",NA,0
"57247",521219,"malaysia","shahalam",3.07,101.56,"0",NA,0
"57246",521166,"iranislamicrep","arak",34.08,49.7,"0",NA,0
"57245",520701,"turkey","eskisehir",39.79,30.52,"0",NA,0
"57244",520660,"mexico","toluca",19.29,-99.67,"0",NA,0
"57243",519749,"russianfederation","ryazan",54.62,39.74,"0",NA,0
"57242",519393,"mexico","reynosa",26.08,-98.28,"0",NA,0
"57241",519026,"russianfederation","lipetsk",52.62,39.62,"0",NA,0
"57240",518990,"sweden","goteborg",57.72,12.01,"0",NA,0
"57239",516347,"chile","puentealto",-33.61,-70.57,"0",NA,0
"57238",514672,"china","shashi",30.32,112.23,"0",NA,0
"57237",514259,"germany","hanover",52.4,9.73,"0",NA,0
"57236",513953,"china","zhuhai",22.28,113.57,"0",NA,0
"57235",512691,"japan","higashiosaka",34.67,135.59,"0",NA,0
"57234",510997,"china","wuhu",31.35,118.37,"0",NA,0
"57233",510851,"russianfederation","penza",53.2,45,"0",NA,0
"57232",510775,"russianfederation","makhachkala",42.98,47.5,"0",NA,0
"57231",510383,"philippines","makati",14.566667,121.033333,NA,"D9",0
"57230",509756,"mexico","sannicolasdelosgarza",25.75,-100.3,"0",NA,0
"57229",508633,"china","maoming",21.92,110.87,"0",NA,0
"57228",508564,"china","zhunmen",22.41,113.98,"0",NA,0
"57227",508320,"india","asansol",23.69,86.98,"0",NA,0
"57226",508209,"portugal","lisbon",38.72,-9.14,"1",NA,1
"57225",507574,"paraguay","asuncion",-25.3,-57.63,"1",NA,1
"57224",506719,"korearep","uijongbu",37.74,127.04,"0",NA,0
"57223",506099,"japan","niigata",37.92,139.04,"0",NA,0
"57222",505879,"guatemala","mixco",14.64,-90.6,"0",NA,0
"57221",505711,"india","sangli-miraj",16.86,74.57,"0",NA,0
"57220",505037,"iranislamicrep","yazd",31.92,54.37,"0",NA,0
"57219",503563,"india","jamnagar",22.47,70.07,"0",NA,0
"57218",502939,"honduras","sanpedrosula",15.47,-88.03,"0",NA,0
"57217",502467,"germany","leipzig",51.35,12.4,"0",NA,0
"57216",502251,"germany","duisburg",51.43,6.75,"0",NA,0
"57215",501970,"russianfederation","astrakhan",46.35,48.05,"0",NA,0
"57214",501185,"mexico","tlaquepaque",20.64,-103.32,"0",NA,0
"57213",500710,"somalia","hargeysa",9.56,44.06,"0",NA,0
"57212",500085,"australia","newcastle",-32.92,151.75,"0",NA,0
"57211",499561,"india","nanded",19.17,77.29,"0",NA,0
"57210",498650,"china","xigong",22.33,114.25,"0",NA,0
"57209",498484,"india","gulbarga",17.34,76.82,"0",NA,0
"57208",497421,"egyptarabrep","suez",29.98,32.54,"0",NA,0
"57207",496109,"brazil","aracaju",-10.91,-37.07,"0",NA,0
"57206",494962,"unitedstates","albuquerque",35.12,-106.62,"0",NA,0
"57205",493782,"germany","nuremberg",49.45,11.05,"0",NA,0
"57204",493678,"india","bhatpara",22.89,88.42,"0",NA,0
"57203",493650,"malaysia","kotakinabalu",5.97,116.07,"0",NA,0
"57202",493307,"mexico","tuxtlagutierrez",16.75,-93.12,"0",NA,0
"57201",492674,"brazil","feiradesantana",-12.25,-38.97,"0",NA,0
"57200",492665,"india","saharanpur",29.97,77.54,"0",NA,0
"57199",492509,"iraq","an-najaf",31.99,44.33,"0",NA,0
"57198",490308,"india","jammu",32.71,74.85,"0",NA,0
"57197",490082,"china","panchiao",25.02,121.44,"0",NA,0
"57196",489912,"southafrica","vereeniging",-26.65,27.96,"0",NA,0
"57195",489883,"germany","dresden",51.05,13.74,"0",NA,0
"57194",489496,"nigeria","okene",7.56,6.23,"0",NA,0
"57193",488560,"china","aomen",22.27,113.56,"0",NA,0
"57192",487890,"japan","matsuyama",33.84,132.77,"0",NA,0
"57191",486571,"unitedstates","longbeach",33.79,-118.16,"0",NA,0
"57190",484980,"china","zunyi",27.7,106.92,"0",NA,0
"57189",484765,"russianfederation","tomsk",56.5,84.97,"0",NA,0
"57188",484696,"pakistan","sialkot",32.52,74.55,"0",NA,0
"57187",483909,"mexico","cuautitlanizcalli",19.65,-99.25,"0",NA,0
"57186",483270,"jordan","az-zarqa'",32.07,36.1,"0",NA,0
"57185",482338,"japan","himeji",34.83,134.69,"0",NA,0
"57184",481000,"belarus","gomel",52.4416667,30.9833333,NA,"2",0
"57183",480916,"china","yinchuan",38.47,106.32,"3",NA,0
"57182",480499,"southafrica","bloemfontein",-29.15,26.23,"0",NA,0
"57181",480482,"belarus","homjel'",52.43,30.99,"0",NA,0
"57180",480397,"china","yichang",30.7,111.28,"0",NA,0
"57179",480392,"unitedstates","sacramento",38.57,-121.47,"0",NA,0
"57178",480040,"brazil","londrina",-23.3,-51.18,"0",NA,0
"57177",479525,"netherlands","s-gravenhage",52.07,4.3,"0",NA,0
"57176",479224,"ukraine","mariupol'",47.1,37.55,"0",NA,0
"57175",478703,"vietnam","danang",16.07,108.21,"0",NA,0
"57174",478518,"india","rajpur",22.44,88.44,"0",NA,0
"57173",477812,"syrianarabrepublic","hamah",35.15,36.73,"0",NA,0
"57172",477493,"macedoniafyr","skopje",42,21.47,"1",NA,1
"57171",476587,"netherlands","thehague",52.083333,4.3,NA,"11",0
"57170",476566,"cameroon","kousseri",12.08,15.03,"0",NA,0
"57169",476198,"brazil","juizdefora",-21.75,-43.36,"0",NA,0
"57168",475995,"france","lyon",45.76,4.83,"0",NA,0
"57167",475064,"china","jiaojiang",28.68,121.45,"0",NA,0
"57166",475010,"japan","nishinomiya",34.73,135.34,"0",NA,0
"57165",474595,"russianfederation","kemerovo",55.33,86.08,"0",NA,0
"57164",474363,"sudan","bursudan",19.63,37.12,"0",NA,0
"57163",473528,"brazil","belfordroxo",-22.75,-43.42,"0",NA,0
"57162",472682,"argentina","santafe",-31.6,-60.69,"0",NA,0
"57161",472517,"unitedstates","fresno",36.78,-119.79,"0",NA,0
"57160",471614,"brazil","joinville",-26.32,-48.84,"0",NA,0
"57159",471305,"japan","matsudo",35.78,139.9,"0",NA,0
"57158",471177,"china","xuchang",34.02,113.82,"0",NA,0
"57157",470993,"nigeria","calabar",4.96,8.31,"0",NA,0
"57156",470360,"congodemrep","kananga",-5.89,22.4,"0",NA,0
"57155",470332,"japan","kawaguchi",35.81,139.73,"0",NA,0
"57154",470203,"china","jiaxing",30.77,120.75,"0",NA,0
"57153",469941,"philippines","zamboanga",6.92,122.08,"0",NA,0
"57152",469940,"saudiarabia","tabuk",28.39,36.57,"0",NA,0
"57151",468584,"unitedkingdom","liverpool",53.42,-2.99,"0",NA,0
"57150",468146,"china","liaoyuan",42.9,125.13,"0",NA,0
"57149",467246,"brazil","aparecidadegoiania",-16.82,-49.24,"0",NA,0
"57148",467234,"southafrica","boksburg",-26.27,28.23,"0",NA,0
"57147",466112,"china","xiangfan",32.02,112.13,"0",NA,0
"57146",465650,"indonesia","manado",1.5,124.84,"0",NA,0
"57145",465318,"china","hengshui",37.72,115.7,"0",NA,0
"57144",464781,"russianfederation","tula",54.2,37.61,"0",NA,0
"57143",463929,"india","ujjain",23.19,75.78,"0",NA,0
"57142",463256,"belgium","antwerp",51.22,4.42,"0",NA,0
"57141",463040,"mexico","durango",24.03,-104.67,"0",NA,0
"57140",462953,"china","panzhihua",26.58,101.68,"0",NA,0
"57139",462923,"turkey","urfa",37.17,38.79,"0",NA,0
"57138",462413,"india","southdumdum",22.61,88.41,"0",NA,0
"57137",462138,"poland","gdansk",54.36,18.64,"0",NA,0
"57136",461545,"haiti","carrefour",18.53,-72.42,"0",NA,0
"57135",461337,"cameroon","garoua",9.3,13.39,"0",NA,0
"57134",461167,"unitedstates","mesa",33.42,-111.74,"0",NA,0
"57133",460086,"japan","ichikawa",35.72,139.93,"0",NA,0
"57132",459488,"japan","kanazawa",36.56,136.64,"0",NA,0
"57131",459042,"indonesia","pontianak",-0.02,109.34,"0",NA,0
"57130",458680,"philippines","bacolod",10.63,122.97,"0",NA,0
"57129",458070,"tanzania","mwanza",-2.52,32.89,"0",NA,0
"57128",457875,"unitedkingdom","leeds",53.81,-1.55,"0",NA,0
"57127",457612,"southafrica","welkom",-27.97,26.73,"0",NA,0
"57126",456610,"brazil","niteroi",-22.9,-43.13,"0",NA,0
"57125",456079,"philippines","cagayan",8.45,124.67,"0",NA,0
"57124",456057,"brazil","saojoaodemeriti",-22.8,-43.35,"0",NA,0
"57123",455293,"philippines","dasmarinas",14.33,120.93,"0",NA,0
"57122",454814,"koreademrep","nampo",38.76,125.45,"0",NA,0
"57121",454669,"india","maheshtala",22.51,88.23,"0",NA,0
"57120",454580,"china","chengde",40.96,117.93,"0",NA,0
"57119",454460,"turkey","malatya",38.36,38.31,"0",NA,0
"57118",454207,"unitedstates","neworleans",30.07,-89.93,"0",NA,0
"57117",453884,"unitedstates","virginiabeach",36.74,-76.04,"0",NA,0
"57116",453641,"argentina","sanjuan",-31.54,-68.53,"0",NA,0
"57115",453016,"peru","iquitos",-3.75,-73.2,"0",NA,0
"57114",452471,"westbankandgaza","gazzah",31.53,34.44,"0",NA,1
"57113",451601,"india","korba",22.35,82.69,"0",NA,0
"57112",451395,"japan","oita",33.24,131.6,"0",NA,0
"57111",451129,"japan","utsunomiya",36.56,139.89,"0",NA,0
"57110",451011,"myanmar","mawlamyine",16.49,97.63,"0",NA,0
"57109",450366,"guatemala","villanueva",14.53,-90.59,"0",NA,0
"57108",450143,"colombia","pereira",4.81,-75.68,"0",NA,0
"57107",449390,"ukraine","luhans'k",48.57,39.33,"0",NA,0
"57106",448860,"russianfederation","cheboksary",56.13,47.25,"0",NA,0
"57105",448596,"unitedkingdom","sheffield",53.39,-1.48,"0",NA,0
"57104",446693,"algeria","constantine",36.36,6.6,"0",NA,0
"57103",446426,"brazil","ribeiraodasneves",-19.76,-44.08,"0",NA,0
"57102",445891,"india","jalgaon",21.01,75.56,"0",NA,0
"57101",445763,"nigeria","katsina",13,7.6,"0",NA,0
"57100",445212,"philippines","cagayandeoro",8.481111,124.643056,NA,"B2",0
"57099",445182,"colombia","santamarta",11.26,-74.19,"0",NA,0
"57098",444449,"china","chaozhou",23.67,116.64,"0",NA,0
"57097",444016,"philippines","dadiangas",6.1,125.25,"0",NA,0
"57096",443949,"unitedstates","cleveland",41.48,-81.68,"0",NA,0
"57095",442757,"brazil","ananindeua",-1.38,-48.38,"0",NA,0
"57094",442699,"china","shaoxing",30,120.57,"0",NA,0
"57093",441945,"india","tirunelveli",8.73,77.69,"0",NA,0
"57092",441797,"iraq","karbala",32.61,44.08,"0",NA,0
"57091",441771,"india","malegaon",20.56,74.52,"0",NA,0
"57090",441639,"venezuelarb","barcelona",10.13,-64.72,"0",NA,0
"57089",440687,"indonesia","balikpapan",-1.26,116.83,"0",NA,0
"57088",440357,"india","kozhikkod",11.26,75.78,"0",NA,0
"57087",439359,"uzbekistan","namangan",41,71.67,"0",NA,0
"57086",439228,"france","toulouse",43.62,1.45,"0",NA,0
"57085",439020,"japan","kurashiki",34.61,133.77,"0",NA,0
"57084",438501,"unitedkingdom","edinburgh",55.95,-3.22,"0",NA,0
"57083",437660,"japan","amagasaki",34.71,135.41,"0",NA,0
"57082",437399,"china","luohe",33.57,114.03,"0",NA,0
"57081",436762,"russianfederation","kaliningrad",54.71,20.5,"0",NA,0
"57080",436642,"congodemrep","likasi",-10.98,26.73,"0",NA,0
"57079",436056,"nigeria","akure",7.25,5.2,"0",NA,0
"57078",436037,"india","akola",20.71,77,"0",NA,0
"57077",436026,"india","belgaum",15.86,74.5,"0",NA,0
"57076",435998,"mexico","xalapa",19.53,-96.92,"0",NA,0
"57075",434649,"egyptarabrep","elmahallaelkubra",30.97,31.17,"0",NA,0
"57074",434051,"india","gaya",24.81,85,"0",NA,0
"57073",433178,"turkey","erzurum",39.91,41.29,"0",NA,0
"57072",432967,"unitedkingdom","bristol",51.46,-2.6,"0",NA,0
"57071",431655,"china","luqiao",28.58,121.38,"0",NA,0
"57070",431237,"india","udaipur",24.58,73.69,"0",NA,0
"57069",431029,"brazil","florianopolis",-27.6,-48.54,"0",NA,0
"57068",430500,"china","shiongshui",22.52,114.12,"0",NA,0
"57067",430214,"egyptarabrep","luxor",25.7,32.65,"0",NA,0
"57066",430025,"pakistan","sukkur",27.7,68.85,"0",NA,0
"57065",429918,"newzealand","auckland",-36.85,174.76,"0",NA,1
"57064",429595,"egyptarabrep","asyut",27.19,31.18,"0",NA,0
"57063",429038,"indonesia","jambi",-1.59,103.61,"0",NA,0
"57062",428940,"japan","yokosuka",35.27,139.67,"0",NA,0
"57061",427848,"venezuelarb","maturin",9.75,-63.17,"0",NA,0
"57060",426985,"unitedarabemirates","al-'ayn",24.23,55.74,"0",NA,0
"57059",426173,"colombia","ibague",4.45,-75.24,"0",NA,0
"57058",425841,"russianfederation","bryansk",53.26,34.42,"0",NA,0
"57057",425824,"egyptarabrep","elmansura",31.04,31.38,"0",NA,0
"57056",425691,"southafrica","newcastle",-27.75,29.92,"0",NA,0
"57055",424361,"india","bokaro",23.78,85.96,"0",NA,0
"57054",424096,"unitedstates","atlanta",33.76,-84.42,"0",NA,0
"57053",422452,"slovakrepublic","bratislava",48.16,17.13,"1",NA,1
"57052",422300,"tanzania","zanzibar",-6.16,39.2,"0",NA,0
"57051",421916,"southafrica","eastlondon",-32.97,27.87,"0",NA,0
"57050",421813,"india","mangaluru",12.88,74.84,"0",NA,0
"57049",421248,"iranislamicrep","ardabil",38.25,48.3,"0",NA,0
"57048",420680,"china","jixi",45.3,130.97,"0",NA,0
"57047",420259,"india","jhansi",25.45,78.56,"0",NA,0
"57046",419498,"malaysia","sandakan",5.85,118.11,"0",NA,0
"57045",419393,"cameroon","bamenda",5.96,10.15,"0",NA,0
"57044",419323,"china","yangquan",37.87,113.57,"0",NA,0
"57043",419031,"sudan","kassala",15.46,36.39,"0",NA,0
"57042",418064,"india","davanagere",14.46,75.92,"0",NA,0
"57041",417809,"unitedstates","omaha",41.26,-96.01,"0",NA,0
"57040",417542,"vietnam","bienhoa",10.95,106.82,"0",NA,0
"57039",417424,"kazakhstan","shymkent",42.32,69.59,"0",NA,0
"57038",417341,"china","hsinchu",24.82,120.98,"0",NA,0
"57037",417292,"russianfederation","ivanovo",57.01,40.99,"0",NA,0
"57036",417154,"puertorico","sanjuan",18.44,-66.13,"1",NA,1
"57035",415159,"spain","murcia",37.98,-1.13,"0",NA,0
"57034",415139,"iranislamicrep","abadan",30.33,48.28,"0",NA,0
"57033",414309,"canada","kitchener",43.46,-80.5,"0",NA,0
"57032",413812,"benin","abomey-calavi",6.44,2.36,"0",NA,0
"57031",413581,"china","shiyan",32.57,110.78,"0",NA,0
"57030",413356,"poland","szczecin",53.43,14.53,"0",NA,0
"57029",413317,"china","hsinchuang",25.04,121.44,"0",NA,0
"57028",412859,"brazil","serra",-20.13,-40.32,"0",NA,0
"57027",411685,"russianfederation","magnitogorsk",53.42,58.97,"0",NA,0
"57026",411390,"india","tiruppur",11.09,77.35,"0",NA,0
"57025",410941,"sudan","al-ubayyid",13.19,30.22,"0",NA,0
"57024",410449,"china","yangjiang",21.85,111.97,"0",NA,0
"57023",410364,"india","nellur",14.46,79.98,"0",NA,0
"57022",410278,"brazil","santos",-23.95,-46.33,"0",NA,0
"57021",409696,"morocco","oujda",34.69,-1.91,"0",NA,0
"57020",409323,"indonesia","denpasar",-8.65,115.22,"0",NA,0
"57019",409151,"kazakhstan","qaragandy",49.88,73.16,"0",NA,0
"57018",408473,"russianfederation","kursk",51.73,36.19,"0",NA,0
"57017",408409,"egyptarabrep","tanta",30.79,31,"0",NA,0
"57016",408337,"zambia","kitwe",-12.81,28.22,"0",NA,0
"57015",407659,"japan","nagasaki",32.75,129.88,"0",NA,0
"57014",407647,"iraq","an-nasiriyah",31.04,46.26,"0",NA,0
"57013",407092,"japan","hirakata",34.81,135.66,"0",NA,0
"57012",406803,"libya","misratah",32.38,15.09,"0",NA,0
"57011",406070,"panama","panama",8.97,-79.53,"1",NA,1
"57010",405750,"india","noida",28.58,77.33,"0",NA,0
"57009",405726,"brazil","vilavelha",-20.32,-40.28,"0",NA,0
"57008",405488,"brazil","betim",-19.97,-44.19,"0",NA,0
"57007",404617,"saudiarabia","buraydah",26.37,43.97,"0",NA,0
"57006",404439,"japan","machida",35.56,139.43,"0",NA,0
"57005",404162,"bangladesh","komilla",23.46,91.17,"0",NA,0
"57004",404119,"guineabissau","bissau",11.87,-15.6,"1",NA,1
"57003",403189,"colombia","bello",6.33,-75.57,"0",NA,0
"57002",402940,"saudiarabia","hamismusayt",18.31,42.73,"0",NA,0
"57001",402652,"india","kollam",8.89,76.58,"0",NA,0
"57000",401943,"china","weifang",36.72,119.1,"0",NA,0
"56999",401861,"haiti","delmas",18.55,-72.28,"0",NA,0
"56998",401395,"afghanistan","qandahar",31.61,65.69,"0",NA,0
"56997",399692,"turkey","samsun",41.29,36.33,"0",NA,0
"56996",399473,"china","keelung",25.13,121.73,"0",NA,0
"56995",399133,"southafrica","krugersdorp",-26.09,27.77,"0",NA,0
"56994",398095,"zambia","ndola",-12.97,28.64,"0",NA,0
"56993",397836,"mozambique","nampula",-15.13,39.24,"0",NA,0
"56992",397731,"japan","fujisawa",35.33,139.47,"0",NA,0
"56991",397361,"russianfederation","tver",56.86,35.89,"0",NA,0
"56990",397305,"venezuelarb","maracay",10.33,-67.47,"0",NA,0
"56989",397193,"brazil","diadema",-23.69,-46.61,"0",NA,0
"56988",397036,"china","dezhou",37.45,116.3,"0",NA,0
"56987",396800,"newzealand","manukau",-37,174.88,"0",NA,0
"56986",396701,"japan","gifu",35.42,136.76,"0",NA,0
"56985",395514,"unitedkingdom","manchester",53.48,-2.25,"0",NA,0
"56984",395244,"china","dongguan",23.05,113.73,"0",NA,0
"56983",394303,"argentina","resistencia",-27.46,-58.99,"0",NA,0
"56982",393632,"unitedstates","oakland",37.77,-122.22,"0",NA,0
"56981",393276,"china","xuanhua",40.6,115.03,"0",NA,0
"56980",392386,"estonia","tallinn",59.44,24.74,"1",NA,1
"56979",391735,"brazil","maua",-23.66,-46.46,"0",NA,0
"56978",391665,"philippines","iloilo",10.69,122.55,"0",NA,0
"56977",391625,"brazil","campos",-21.75,-41.34,"0",NA,0
"56976",391568,"turkey","van",38.49,43.4,"0",NA,0
"56975",391245,"thailand","nonthaburi",13.8,100.18,"0",NA,0
"56974",391059,"brazil","caxiasdosul",-29.18,-51.17,"0",NA,0
"56973",391008,"colombia","pasto",1.21,-77.28,"0",NA,0
"56972",390744,"thailand","samutprakan",13.61,100.61,"0",NA,0
"56971",390647,"malaysia","seremban",2.71,101.95,"0",NA,0
"56970",390330,"nigeria","ife",7.55,4.57,"0",NA,0
"56969",387717,"peru","huancayo",-12.07,-75.21,"0",NA,0
"56968",387228,"china","zhoukou",33.64,114.63,"0",NA,0
"56967",386740,"unitedstates","miami",25.78,-80.21,"0",NA,0
"56966",386545,"turkey","kahramanmaras",37.61,36.94,"0",NA,0
"56965",386414,"india","panihati",22.69,88.37,"0",NA,0
"56964",386345,"unitedstates","honolulu",21.32,-157.8,"0",NA,0
"56963",386196,"china","taoyuan",25,121.31,"0",NA,0
"56962",384276,"israel","telaviv-yafo",32.07,34.77,"0",NA,0
"56961",384217,"japan","fukuyama",34.5,133.37,"0",NA,0
"56960",384208,"germany","bochum",51.48,7.2,"0",NA,0
"56959",383784,"india","ahmadnagar",19.1,74.74,"0",NA,0
"56958",382992,"brazil","saojosedoriopreto",-20.8,-49.39,"0",NA,0
"56957",382956,"japan","toyonaka",34.78,135.48,"0",NA,0
"56956",382886,"china","sanmenxia",34.83,111.08,"0",NA,0
"56955",382628,"malaysia","kuantan",3.82,103.34,"0",NA,0
"56954",382184,"korearep","chonan",36.81,127.16,"0",NA,0
"56953",381989,"spain","laspalmas",28.1,-15.43,"0",NA,1
"56952",381859,"korearep","kimhae",35.19,128.93,"0",NA,0
"56951",381285,"spain","palma",39.57,2.65,"0",NA,0
"56950",381108,"japan","toyohashi",34.76,137.39,"0",NA,0
"56949",380646,"china","putian",25.43,119.02,"0",NA,0
"56948",380403,"albania","tirana",41.33,19.82,"1",NA,1
"56947",379833,"unitedstates","tulsa",36.13,-95.92,"0",NA,0
"56946",379504,"indonesia","cimahi",-6.83,107.48,"0",NA,0
"56945",379357,"mexico","ixtapaluca",19.32,-98.88,"0",NA,0
"56944",379149,"pakistan","larkana",27.56,68.21,"0",NA,0
"56943",378029,"russianfederation","nizhniytagil",57.92,59.97,"0",NA,0
"56942",376562,"china","chungho",24.99,121.5,"0",NA,0
"56941",376114,"china","dongchang",41.73,125.93,"0",NA,0
"56940",375744,"unitedstates","coloradosprings",38.86,-104.76,"0",NA,0
"56939",375402,"ghana","tamale",9.4,-0.84,"0",NA,0
"56938",375374,"venezuelarb","petare",10.52,-66.83,"0",NA,0
"56937",375193,"italy","bologna",44.5,11.34,"0",NA,0
"56936",374912,"india","dasarahalli",13.01,77.49,"0",NA,0
"56935",374479,"italy","florence",43.78,11.24,"0",NA,0
"56934",374041,"morocco","kenitra",34.27,-6.58,"0",NA,0
"56933",374011,"pakistan","shekhupura",31.72,73.98,"0",NA,0
"56932",373989,"lithuania","kaunas",54.9,23.91,"0",NA,0
"56931",373726,"china","pingxiang",27.62,113.85,"0",NA,0
"56930",373594,"ukraine","makiyivka",48.03,37.97,"0",NA,0
"56929",373347,"india","dhule",20.9,74.77,"0",NA,0
"56928",373226,"japan","wakayama",34.22,135.17,"0",NA,0
"56927",371843,"china","zhaoqing",23.05,112.45,"0",NA,0
"56926",371808,"mexico","apodaca",25.77,-100.18,"0",NA,0
"56925",371158,"china","anshun",26.25,105.93,"0",NA,0
"56924",369250,"newzealand","christchurch",-43.53,172.64,"0",NA,0
"56923",368807,"mexico","villahermosa",17.98,-92.92,"0",NA,0
"56922",367860,"brazil","olinda",-8,-34.85,"0",NA,0
"56921",367796,"philippines","bacoor",14.46,120.94,"0",NA,0
"56920",367757,"japan","nara",34.69,135.83,"0",NA,0
"56919",367509,"indonesia","ambon",-3.7,128.16,"0",NA,0
"56918",367464,"iranislamicrep","zanjan",36.67,48.5,"0",NA,0
"56917",366763,"belarus","mahiljow",53.9,30.33,"0",NA,0
"56916",366585,"india","bhagalpur",25.26,86.98,"0",NA,0
"56915",366383,"burkinafaso","bobodioulasso",11.18,-4.29,"0",NA,0
"56914",366378,"philippines","sanjosedelmonte",14.81,121.05,"0",NA,0
"56913",365936,"russianfederation","stavropol",45.04,41.97,"0",NA,0
"56912",365771,"czechrepublic","brno",49.2,16.61,"0",NA,0
"56911",365607,"brazil","carapicuiba",-23.52,-46.84,"0",NA,0
"56910",365418,"spain","laspalmas",28.099727,-15.41343,NA,"53",0
"56909",364726,"unitedstates","minneapolis",44.96,-93.27,"0",NA,0
"56908",364620,"japan","toyota",35.09,137.16,"0",NA,0
"56907",364404,"china","anqing",30.5,117.05,"0",NA,0
"56906",364331,"sudan","kusti",13.17,32.66,"0",NA,0
"56905",364268,"poland","bydgoszcz",53.12,18.01,"0",NA,0
"56904",362904,"tanzania","arusha",-3.36,36.67,"0",NA,0
"56903",362589,"kazakhstan","taraz",42.9,71.37,"0",NA,0
"56902",362387,"india","latur",18.41,76.58,"0",NA,0
"56901",362266,"china","aksu",41.15,80.25,"0",NA,0
"56900",361773,"colombia","neiva",2.94,-75.27,"0",NA,0
"56899",361619,"argentina","santiagodelestero",-27.8,-64.28,"0",NA,0
"56898",361480,"korearep","yosu",34.74,127.74,"0",NA,0
"56897",361119,"poland","lublin",51.24,22.57,"0",NA,0
"56896",360619,"russianfederation","ulan-ude",51.83,107.62,"0",NA,0
"56895",360530,"colombia","manizales",5.06,-75.52,"0",NA,0
"56894",360331,"korearep","kwangmyong",37.45,126.84,"0",NA,0
"56893",360294,"japan","nagano",36.65,138.18,"0",NA,0
"56892",360102,"mexico","mazatlan",23.22,-106.42,"0",NA,0
"56891",359499,"germany","wuppertal",51.26,7.18,"0",NA,0
"56890",359070,"venezuelarb","turmero",10.22,-67.48,"0",NA,0
"56889",358247,"india","muzaffarnagar",29.48,77.69,"0",NA,0
"56888",358209,"mexico","nuevolaredo",27.48,-99.51,"0",NA,0
"56887",358084,"iranislamicrep","sanandaj",35.3,47.02,"0",NA,0
"56886",357920,"china","sanchung",25.07,121.48,"0",NA,0
"56885",357404,"nigeria","iseyin",7.98,3.67,"0",NA,0
"56884",357060,"china","chungli",24.96,121.22,"0",NA,0
"56883",356829,"japan","iwaki",37.05,140.88,"0",NA,0
"56882",356805,"china","chifeng",42.27,118.95,"0",NA,0
"56881",356063,"japan","asahikawa",43.77,142.36,"0",NA,0
"56880",356051,"unitedstates","wichita",37.69,-97.34,"0",NA,0
"56879",355796,"indonesia","samarinda",-0.5,117.15,"0",NA,0
"56878",355786,"india","kukatpalle",17.49,78.41,"0",NA,0
"56877",355725,"brazil","macapa",0.04,-51.05,"0",NA,0
"56876",355573,"japan","okazaki",34.96,137.16,"0",NA,0
"56875",355092,"malaysia","kajang-sungaichua",2.98,101.77,"0",NA,0
"56874",354311,"china","jincheng",35.5,112.83,"0",NA,0
"56873",353872,"japan","takatsuki",34.85,135.62,"0",NA,0
"56872",353396,"china","sucheng",33.95,118.29,"0",NA,0
"56871",352915,"bangladesh","tungi",23.88,90.4,"0",NA,0
"56870",352327,"brazil","itaquaquecetuba",-23.47,-46.35,"0",NA,0
"56869",352310,"japan","suita",34.75,135.52,"0",NA,0
"56868",352061,"congodemrep","boma",-5.85,13.05,"0",NA,0
"56867",351861,"brazil","campinagrande",-7.23,-35.88,"0",NA,0
"56866",351646,"greece","thessaloniki",40.64,22.94,"0",NA,0
"56865",351386,"india","ambattur",13.11,80.17,"0",NA,0
"56864",351381,"qatar","doha",25.3,51.51,"1",NA,1
"56863",351343,"kazakhstan","astana",51.17,71.47,"1",NA,0
"56862",351199,"colombia","soledad",10.92,-74.77,"0",NA,0
"56861",351167,"cuba","camaguey",21.4,-77.91,"0",NA,0
"56860",351032,"ukraine","vinnytsya",49.23,28.48,"0",NA,0
"56859",350822,"unitedstates","raleigh",35.82,-78.66,"0",NA,0
"56858",350782,"spain","bilbao",43.25,-2.93,"0",NA,0
"56857",350350,"china","tucheng",24.98,121.44,"0",NA,0
"56856",349466,"koreademrep","hungnam",39.83,127.62,"0",NA,0
"56855",348681,"canada","london",42.97,-81.24,"0",NA,0
"56854",348181,"russianfederation","belgorod",50.61,36.59,"0",NA,0
"56853",347809,"pakistan","jhang",31.28,72.32,"0",NA,0
"56852",347228,"brazil","piracicaba",-22.71,-47.64,"0",NA,0
"56851",347026,"syrianarabrepublic","al-ladiqiyah",35.54,35.78,"0",NA,0
"56850",346936,"indonesia","pacet",-6.75,107.05,"0",NA,0
"56849",346932,"mexico","cuernavaca",18.92,-99.25,"0",NA,0
"56848",346845,"korearep","masan",35.22,128.58,"0",NA,0
"56847",346670,"china","zhongshan",22.53,113.35,"0",NA,0
"56846",346621,"india","rajarhatgopalpur",22.52,88.27,"0",NA,0
"56845",346346,"zimbabwe","chitungwiza",-18,31.1,"0",NA,0
"56844",345715,"china","qitaihe",45.8,130.85,"0",NA,0
"56843",345314,"argentina","corrientes",-27.49,-58.81,"0",NA,0
"56842",345291,"sudan","wadmadani",14.4,33.51,"0",NA,0
"56841",344086,"unitedstates","santaana",33.74,-117.88,"0",NA,0
"56840",343573,"mexico","irapuato",20.68,-101.36,"0",NA,0
"56839",342718,"japan","kashiwa",35.87,139.97,"0",NA,0
"56838",342364,"russianfederation","kurgan",55.45,65.33,"0",NA,0
"56837",342308,"ukraine","simferopol'",44.95,34.1,"0",NA,0
"56836",342180,"belarus","vicebsk",55.19,30.18,"0",NA,0
"56835",341800,"japan","koriyama",37.41,140.38,"0",NA,0
"56834",341771,"iranislamicrep","qazvin",36.27,50,"0",NA,0
"56833",341562,"brazil","montesclaros",-16.72,-43.86,"0",NA,0
"56832",341528,"india","bellary",15.14,76.91,"0",NA,0
"56831",341496,"koreademrep","kaesong",37.97,126.56,"0",NA,0
"56830",341417,"japan","tokorozawa",35.8,139.47,"0",NA,0
"56829",341201,"unitedkingdom","leicester",52.64,-1.13,"0",NA,0
"56828",340837,"russianfederation","arkhangelsk",64.57,40.53,"0",NA,0
"56827",340501,"brazil","bauru",-22.33,-49.08,"0",NA,0
"56826",340475,"russianfederation","kaluga",54.54,36.27,"0",NA,0
"56825",340394,"bulgaria","plovdiv",42.15,24.75,"0",NA,0
"56824",340156,"india","muzaffarpur",26.13,85.38,"0",NA,0
"56823",339486,"japan","kawagoe",35.92,139.49,"0",NA,0
"56822",339463,"china","daipo",22.45,114.16,"0",NA,0
"56821",339205,"iranislamicrep","khorramabad",33.48,48.35,"0",NA,0
"56820",339042,"india","bhilwara",25.35,74.63,"0",NA,0
"56819",338922,"iranislamicrep","khorramshahr",30.43,48.18,"0",NA,0
"56818",338812,"china","tieling",42.3,123.82,"0",NA,0
"56817",338754,"switzerland","zurich",47.38,8.54,"0",NA,1
"56816",338656,"india","mathura",27.5,77.68,"0",NA,0
"56815",338490,"korearep","cheju",33.51,126.52,"0",NA,0
"56814",337891,"france","nice",43.7,7.27,"0",NA,0
"56813",337486,"india","kamarhati",22.67,88.37,"0",NA,0
"56812",336869,"china","shangrao",28.47,117.97,"0",NA,0
"56811",336632,"china","fengshan",22.63,120.35,"0",NA,0
"56810",336592,"japan","kochi",33.56,133.54,"0",NA,0
"56809",336561,"burundi","bujumbura",-3.37,29.35,"1",NA,1
"56808",336522,"sudan","al-qadarif",14.04,35.38,"0",NA,0
"56807",336315,"india","chandrapur",19.96,79.3,"0",NA,0
"56806",335971,"india","patiala",30.32,76.39,"0",NA,0
"56805",335831,"cameroon","maroua",10.58,14.33,"0",NA,0
"56804",335758,"somalia","marka",1.72,44.76,"0",NA,0
"56803",335733,"gambiathe","serrekunda",13.45,-16.68,"0",NA,1
"56802",335426,"indonesia","tambun",-6.27,107.05,"0",NA,0
"56801",335158,"germany","bielefeld",52.03,8.53,"0",NA,0
"56800",334975,"china","yanji",42.88,129.52,"0",NA,0
"56799",334911,"elsalvador","soyapango",13.7,-89.16,"0",NA,0
"56798",334909,"unitedstates","anaheim",33.84,-117.87,"0",NA,0
"56797",334789,"brazil","cariacica",-20.23,-40.37,"0",NA,0
"56796",334491,"japan","takamatsu",34.34,134.04,"0",NA,0
"56795",334006,"india","brahmapur",19.32,84.8,"0",NA,0
"56794",333492,"bangladesh","maimansingh",24.75,90.39,"0",NA,0
"56793",333310,"russianfederation","orel",52.965076,36.078495,NA,"56",0
"56792",333147,"india","lalbahadurnagar",17.43,78.5,"0",NA,0
"56791",332819,"bangladesh","silhat",24.9,91.87,"0",NA,0
"56790",332551,"brazil","canoas",-29.92,-51.18,"0",NA,0
"56789",332400,"ukraine","vinnitsa",49.232776,28.480968,NA,"23",0
"56788",332278,"australia","sunshinecoast",-25.88,152.56,"0",NA,0
"56787",332223,"mexico","pachuca",20.12,-98.76,"0",NA,0
"56786",332019,"india","shimoga",13.93,75.57,"0",NA,0
"56785",332009,"morocco","tetouan",35.58,-5.37,"0",NA,0
"56784",331975,"koreademrep","wonsan",39.16,127.43,"0",NA,0
"56783",331258,"china","suizhou",31.71,113.36,"0",NA,0
"56782",331231,"brazil","mojidascruzes",-23.52,-46.21,"0",NA,0
"56781",330695,"ukraine","sevastopol'",44.6,33.53,"0",NA,0
"56780",330447,"russianfederation","oryol",52.97,36.08,"0",NA,0
"56779",329945,"colombia","villavicencio",4.15,-73.64,"0",NA,0
"56778",329800,"iraq","al-'amarah",31.85,47.17,"0",NA,0
"56777",329756,"kazakhstan","pavlodar",52.3,76.95,"0",NA,0
"56776",329486,"china","mianchang",23.26,116.59,"0",NA,0
"56775",328956,"indonesia","percutseituan",3.68,98.75,"0",NA,0
"56774",328883,"morocco","asfi",32.299392,-9.237181,NA,"51",0
"56773",328578,"unitedstates","tampa",27.96,-82.48,"0",NA,0
"56772",328577,"peru","piura",-5.19,-80.63,"0",NA,0
"56771",328512,"brazil","saovicente",-23.96,-46.39,"0",NA,0
"56770",327730,"malaysia","tawau",4.26,117.88,"0",NA,0
"56769",327464,"brazil","anapolis",-16.32,-48.96,"0",NA,0
"56768",327224,"russianfederation","sochi",43.6,39.73,"0",NA,0
"56767",327150,"mexico","coacalco",19.63,-99.11,"0",NA,0
"56766",326993,"mexico","generalescobedo",25.82,-100.33,"0",NA,0
"56765",326951,"panama","sanmiguelito",9.03,-79.5,"0",NA,0
"56764",326838,"russianfederation","volzhskiy",48.79,44.77,"0",NA,0
"56763",326778,"india","thrissur",10.52,76.21,"0",NA,0
"56762",326545,"koreademrep","chongjin",41.78,129.78,"0",NA,0
"56761",326325,"korearep","kunpo",37.35,126.95,"0",NA,0
"56760",326055,"iraq","ad-diwaniyah",32,44.93,"0",NA,0
"56759",325974,"india","shahjahanpur",27.88,79.9,"0",NA,0
"56758",325832,"southafrica","brakpan",-26.29,28.37,"0",NA,0
"56757",325650,"brazil","jundiai",-23.2,-46.88,"0",NA,0
"56756",325528,"japan","toyama",36.7,137.22,"0",NA,0
"56755",325145,"india","rohtak",28.9,76.58,"0",NA,0
"56754",325052,"china","baicheng",45.62,122.82,"0",NA,0
"56753",324869,"peru","pucallpa",-8.39,-74.53,"0",NA,0
"56752",324769,"indonesia","bengkulu",-3.8,102.25,"0",NA,0
"56751",324736,"australia","canberra",-35.31,149.13,"1",NA,0
"56750",324704,"brazil","pelotas",-31.76,-52.34,"0",NA,0
"56749",324488,"cuba","holguin",20.89,-76.25,"0",NA,0
"56748",324219,"india","tumkur",13.34,77.1,"0",NA,0
"56747",324078,"southafrica","botshabelo",-29.23,26.73,"0",NA,0
"56746",323613,"spain","cordoba",37.88,-4.77,"0",NA,0
"56745",323509,"nigeria","bauchi",10.31,9.84,"0",NA,0
"56744",323392,"iraq","al-kut",32.5,45.82,"0",NA,0
"56743",323256,"iranislamicrep","bandar-e'abbas",27.25,56.25,"0",NA,0
"56742",322933,"spain","valladolid",41.65,-4.74,"0",NA,0
"56741",322667,"colombia","soacha",4.58,-74.22,"0",NA,0
"56740",322492,"spain","alacant",38.35,-0.48,"0",NA,0
"56739",321883,"india","nidilli",28.6,77.22,"1",NA,0
"56738",321809,"nigeria","ikorodu",6.61,3.51,"0",NA,0
"56737",321525,"iranislamicrep","eslamshahr",35.54,51.2,"0",NA,0
"56736",321108,"indonesia","mataram",-8.58,116.13,"0",NA,0
"56735",320952,"turkey","denizli",37.78,29.08,"0",NA,0
"56734",320836,"canada","saintcatharines-niagara",43.18,-79.24,"0",NA,0
"56733",320649,"japan","akita",39.71,140.11,"0",NA,0
"56732",320589,"peru","chimbote",-9.07,-78.6,"0",NA,0
"56731",320334,"argentina","posadas",-27.4,-55.91,"0",NA,0
"56730",320164,"belarus","hrodna",53.67,23.83,"0",NA,0
"56729",319995,"uzbekistan","andijon",40.79,72.34,"0",NA,0
"56728",319854,"kazakhstan","oskemen",49.97,82.61,"0",NA,0
"56727",319624,"russianfederation","smolensk",54.78,32.04,"0",NA,0
"56726",319352,"brazil","guaruja",-24,-46.27,"0",NA,0
"56725",319347,"japan","koshigaya",35.89,139.79,"0",NA,0
"56724",318590,"ukraine","kherson",46.63,32.6,"0",NA,0
"56723",318576,"india","barasat",22.72,88.48,"0",NA,0
"56722",318062,"russianfederation","vladikavkaz",43.04,44.68,"0",NA,0
"56721",317931,"ukraine","poltava",49.58,34.57,"0",NA,0
"56720",317871,"brazil","maringa",-23.41,-51.93,"0",NA,0
"56719",317382,"jordan","irbid",32.55,35.85,"0",NA,0
"56718",317015,"peru","cusco",-13.52,-71.99,"0",NA,0
"56717",316571,"brazil","vitoria",-20.31,-40.31,"0",NA,0
"56716",316542,"romania","iasi",47.17,27.57,"0",NA,0
"56715",316407,"china","tongling",30.95,117.78,"0",NA,0
"56714",316289,"colombia","valledupar",10.48,-73.25,"0",NA,0
"56713",316272,"unitedstates","pittsburgh",40.44,-79.98,"0",NA,0
"56712",316129,"romania","cluj-napoca",46.78,23.59,"0",NA,0
"56711",315939,"uzbekistan","samarkand",39.66,66.95,"0",NA,0
"56710",315546,"unitedstates","saintlouis",38.64,-90.24,"0",NA,0
"56709",315138,"germany","bonn",50.73,7.1,"0",NA,0
"56708",314915,"afghanistan","mazar-esarif",36.7,67.1,"0",NA,0
"56707",314606,"chile","antofagasta",-23.65,-70.39,"0",NA,0
"56706",314322,"poland","katowice",50.26,19.02,"0",NA,0
"56705",314236,"china","jinxi",40.75,120.83,"0",NA,0
"56704",314171,"turkey","batman",37.89,41.13,"0",NA,0
"56703",313980,"romania","timisoara",45.76,21.23,"0",NA,0
"56702",313699,"russianfederation","murmansk",68.96,33.08,"0",NA,0
"56701",313447,"india","firozabad",27.15,78.39,"0",NA,0
"56700",312947,"argentina","jujuy",-24.19,-65.3,"0",NA,0
"56699",312847,"brazil","portovelho",-8.76,-63.91,"0",NA,0
"56698",312392,"bulgaria","varna",43.21,27.9,"0",NA,0
"56697",312352,"japan","miyazaki",31.91,131.42,"0",NA,0
"56696",312350,"china","jingdezhen",29.27,117.18,"0",NA,0
"56695",312117,"korearep","chinju",35.19,128.08,"0",NA,0
"56694",311884,"russianfederation","cherepovets",59.13,37.9,"0",NA,0
"56693",311680,"mexico","celaya",20.52,-100.82,"0",NA,0
"56692",311624,"egyptarabrep","elfaiyum",29.31,30.84,"0",NA,0
"56691",311381,"mexico","tampico",22.22,-97.85,"0",NA,0
"56690",311013,"czechrepublic","ostrava",49.83,18.27,"0",NA,0
"56689",310787,"italy","bari",41.12,16.87,"0",NA,0
"56688",310777,"iranislamicrep","kashan",33.98,51.58,"0",NA,0
"56687",310302,"brazil","franca",-20.53,-47.39,"0",NA,0
"56686",310104,"pakistan","rahimyarkhan",28.42,70.3,"0",NA,0
"56685",309969,"india","nizamabad",18.68,78.1,"0",NA,0
"56684",309612,"china","dongying",37.5,118.52,"0",NA,0
"56683",309323,"unitedkingdom","coventry",52.42,-1.5,"0",NA,0
"56682",309071,"india","kulti",23.72,86.89,"0",NA,0
"56681",308680,"pakistan","gujrat",32.58,74.07,"0",NA,0
"56680",308422,"ukraine","chernihiv",51.5,31.3,"0",NA,0
"56679",308318,"pakistan","mardan",34.2,72.04,"0",NA,0
"56678",308048,"russianfederation","vladimir",56.14,40.4,"0",NA,0
"56677",307579,"germany","mannheim",49.5,8.47,"0",NA,0
"56676",307162,"india","hisar",29.16,75.72,"0",NA,0
"56675",307033,"yemenrep","al-mukalla",14.54,49.13,"0",NA,0
"56674",306428,"india","bally",22.65,88.35,"0",NA,0
"56673",306351,"unitedstates","riverside",33.94,-117.4,"0",NA,0
"56672",306108,"nigeria","makurdi",7.73,8.53,"0",NA,0
"56671",306027,"philippines","angeles",15.15,120.55,"0",NA,0
"56670",305537,"india","barddhaman",23.24,87.86,"0",NA,0
"56669",305528,"russianfederation","surgut",61.25,73.42,"0",NA,0
"56668",305492,"russianfederation","chita",52.05,113.46,"0",NA,0
"56667",305292,"unitedstates","toledo",41.66,-83.58,"0",NA,0
"56666",305053,"cameroon","bafoussam",5.49,10.41,"0",NA,0
"56665",305015,"china","beihai",21.48,109.1,"0",NA,0
"56664",304777,"unitedkingdom","cardiff",51.48,-3.18,"0",NA,0
"56663",304449,"romania","craiova",44.33,23.82,"0",NA,0
"56662",304334,"brazil","blumenau",-26.92,-49.09,"0",NA,0
"56661",304327,"turkey","elazig",38.68,39.23,"0",NA,0
"56660",304155,"tanzania","mbeya",-8.89,33.43,"0",NA,0
"56659",304118,"indonesia","jember",-8.17,113.69,"0",NA,0
"56658",303907,"azerbaijan","gence",40.68,46.35,"0",NA,0
"56657",303589,"indonesia","cilegon",-5.94,106,"0",NA,0
"56656",303310,"belarus","brest",52.12,23.68,"0",NA,0
"56655",302918,"russianfederation","saransk",54.18,45.18,"0",NA,0
"56654",302318,"india","qutubullapur",17.43,78.47,"0",NA,0
"56653",302228,"india","rajamahendri",17.02,81.79,"0",NA,0
"56652",302225,"unitedkingdom","kingstonuponhull",53.75,-0.36,"0",NA,0
"56651",301951,"brazil","fozdoiguacu",-25.55,-54.58,"0",NA,0
"56650",301775,"unitedstates","bakersfield",35.36,-119,"0",NA,0
"56649",301561,"unitedstates","cincinnati",39.14,-84.51,"0",NA,0
"56648",301544,"italy","catania",37.5,15.08,"0",NA,0
"56647",301281,"brazil","viamao",-30.09,-50.98,"0",NA,0
"56646",300987,"india","panipat",29.39,76.96,"0",NA,0
"56645",300803,"japan","kasugai",35.24,136.98,"0",NA,0
"56644",300728,"korearep","pohang",36.03,129.37,"0",NA,0
"56643",300704,"romania","constanta",44.18,28.63,"0",NA,0
"56642",300639,"japan","naha",26.21,127.7,"0",NA,0
"56641",300478,"unitedkingdom","bradford",53.8,-1.75,"0",NA,0
"56640",300284,"japan","otsu",35.01,135.87,"0",NA,0
"56639",300186,"brazil","limeira",-22.55,-47.4,"0",NA,0
"56638",299887,"india","rampur",28.82,79.02,"0",NA,0
"56637",299188,"unitedstates","stockton",37.97,-121.31,"0",NA,0
"56636",298580,"japan","aomori",40.83,140.74,"0",NA,0
"56635",298513,"saudiarabia","al-hufuf",25.35,49.58,"0",NA,0
"56634",298299,"nigeria","minna",9.6,6.55,"0",NA,0
"56633",298279,"japan","akashi",34.66,134.98,"0",NA,0
"56632",298152,"ukraine","cherkasy",49.43,32.07,"0",NA,0
"56631",298131,"cameroon","mokolo",10.75,13.81,"0",NA,0
"56630",297636,"india","parbhani",19.27,76.76,"0",NA,0
"56629",297619,"nigeria","ede",7.73,4.52,"0",NA,0
"56628",297444,"brazil","pontagrossa",-25.09,-50.16,"0",NA,0
"56627",297084,"pakistan","kasur",31.12,74.45,"0",NA,0
"56626",297041,"chile","vinadelmar",-33.01,-71.55,"0",NA,0
"56625",296852,"japan","yokkaichi",34.97,136.64,"0",NA,0
"56624",296832,"japan","morioka",39.7,141.15,"0",NA,0
"56623",296584,"china","huizhou",23.08,114.4,"0",NA,0
"56622",296558,"saudiarabia","al-mubarraz",25.43,49.57,"0",NA,0
"56621",296521,"indonesia","kupang",-10.17,123.57,"0",NA,0
"56620",296131,"korearep","kumi",36.13,128.35,"0",NA,0
"56619",296003,"brazil","suzano",-23.55,-46.31,"0",NA,0
"56618",295898,"china","luzhou",28.88,105.38,"0",NA,0
"56617",295889,"brazil","paulista",-7.9,-34.91,"0",NA,0
"56616",295604,"venezuelarb","ciudadbolivar",8.1,-63.6,"0",NA,0
"56615",295551,"russianfederation","vologda",59.22,39.9,"0",NA,0
"56614",295324,"china","chuzhou",32.3,118.3,"0",NA,0
"56613",295091,"algeria","babazwar",36.72,3.18,"0",NA,0
"56612",295030,"venezuelarb","barinas",8.6,-70.25,"0",NA,0
"56611",294932,"japan","fukushima",37.75,140.47,"0",NA,0
"56610",294921,"libya","al-'aziziyah",32.53,13.02,"0",NA,0
"56609",294818,"ukraine","sumy",50.92,34.78,"0",NA,0
"56608",294739,"indonesia","palu",-0.9,119.84,"0",NA,0
"56607",294678,"philippines","mandaue",10.33,123.93,"0",NA,0
"56606",294480,"spain","vigo",42.22,-8.71,"0",NA,0
"56605",294377,"indonesia","batam",1.03,103.92,"0",NA,0
"56604",293303,"india","kakinada",16.96,82.24,"0",NA,0
"56603",292450,"vietnam","hue",16.48,107.58,"0",NA,0
"56602",292438,"venezuelarb","santateresa",10.23,-66.66,"0",NA,0
"56601",292307,"romania","galati",45.44,28.04,"0",NA,0
"56600",292283,"kazakhstan","semey",50.43,80.27,"0",NA,0
"56599",292223,"poland","bialystok",53.14,23.16,"0",NA,0
"56598",292124,"india","darbhanga",26.16,85.88,"0",NA,0
"56597",291755,"philippines","cainta",14.58,121.12,"0",NA,0
"56596",291533,"nigeria","ilesha",7.62,4.74,"0",NA,0
"56595",291532,"morocco","safi",32.32,-9.24,"0",NA,0
"56594",291091,"colombia","itagui",6.17,-75.62,"0",NA,0
"56593",290764,"bangladesh","rangpur",25.74,89.25,"0",NA,0
"56592",290492,"korearep","iksan",35.94,126.95,"0",NA,0
"56591",290312,"malaysia","kualaterengganu",5.33,103.14,"0",NA,0
"56590",290055,"russianfederation","tambov",52.73,41.43,"0",NA,0
"56589",289861,"papuanewguinea","portmoresby",-9.48,147.18,"1",NA,1
"56588",289837,"canada","victoria",48.43,-123.37,"0",NA,0
"56587",289609,"peru","tacna",-18.02,-70.25,"0",NA,0
"56586",289576,"nigeria","efonalaye",7.67,4.88,"0",NA,0
"56585",289547,"iraq","al-hillah",32.48,44.46,"0",NA,0
"56584",289052,"india","alwar",27.56,76.6,"0",NA,0
"56583",288916,"iranislamicrep","khomeynishahr",32.7,51.47,"0",NA,0
"56582",288346,"egyptarabrep","ismailia",30.59,32.26,"0",NA,0
"56581",288122,"vietnam","nhatrang",12.25,109.19,"0",NA,0
"56580",288059,"iranislamicrep","qods",35.73,51.18,"0",NA,0
"56579",287740,"korearep","pyongtaek",36.98,127.1,"0",NA,0
"56578",287660,"koreademrep","sinuiju",40.1,124.41,"0",NA,0
"56577",286976,"india","bilaspur",22.09,82.15,"0",NA,0
"56576",286924,"turkey","adapazari",40.79,30.41,"0",NA,0
"56575",286900,"bangladesh","narsingdi",23.92,90.72,"0",NA,0
"56574",286780,"nigeria","owo",7.19,5.59,"0",NA,0
"56573",286722,"egyptarabrep","elzagazig",30.58,31.5,"0",NA,0
"56572",286546,"qatar","ar-rayyan",25.32,51.37,"0",NA,0
"56571",286313,"brazil","caucaia",-3.74,-38.67,"0",NA,0
"56570",286256,"turkey","gebze",40.81,29.44,"0",NA,0
"56569",286036,"bangladesh","barisal",22.7,90.37,"0",NA,0
"56568",286034,"algeria","batnah",35.57,6.17,"0",NA,0
"56567",285752,"russianfederation","nalchik",43.5,43.62,"0",NA,0
"56566",284942,"germany","karlsruhe",49,8.4,"0",NA,0
"56565",284835,"chile","valparaiso",-33.04,-71.64,"0",NA,0
"56564",284712,"china","kashi",39.48,75.97,"0",NA,0
"56563",284665,"japan","ichihara",35.53,140.09,"0",NA,0
"56562",284384,"nigeria","ado",7.67,5.27,"0",NA,0
"56561",283657,"malaysia","kotabahru",6.12,102.24,"0",NA,0
"56560",283643,"mexico","tepic",21.5,-104.89,"0",NA,0
"56559",283360,"saudiarabia","ha'il",27.53,41.7,"0",NA,0
"56558",282563,"indonesia","sukabumi",-6.92,106.92,"0",NA,0
"56557",282413,"japan","maebashi",36.39,139.06,"0",NA,0
"56556",282280,"india","karnul",15.83,78.03,"0",NA,0
"56555",281730,"ukraine","zhytomyr",50.25,28.67,"0",NA,0
"56554",281628,"japan","ichinomiya",35.3,136.8,"0",NA,0
"56553",281491,"tunisia","safaqis",34.75,10.72,"0",NA,0
"56552",280808,"unitedstates","corpuschristi",27.71,-97.29,"0",NA,0
"56551",280559,"netherlands","utrecht",52.1,5.11,"0",NA,0
"56550",279428,"unitedstates","anchorage",61.18,-149.19,"0",NA,0
"56549",278766,"iraq","ar-ramadi",33.43,43.31,"0",NA,0
"56548",278510,"india","ichalkaranji",16.69,74.46,"0",NA,0
"56547",278406,"philippines","sanpedro",14.36,121.06,"0",NA,0
"56546",278209,"afghanistan","herat",34.35,62.18,"0",NA,0
"56545",278150,"russianfederation","taganrog",47.22,38.91,"0",NA,0
"56544",277979,"france","nantes",47.23,-1.57,"0",NA,0
"56543",277600,"india","bijapur",16.83,75.71,"0",NA,0
"56542",277530,"china","hsintien",24.96,121.53,"0",NA,0
"56541",277423,"argentina","bahiablanca",-38.72,-62.28,"0",NA,0
"56540",277349,"namibia","windhoek",-22.56,17.09,"1",NA,1
"56539",277335,"russianfederation","kostroma",57.77,40.93,"0",NA,0
"56538",276964,"ecuador","cuenca",-2.9,-79.01,"0",NA,0
"56537",276762,"unitedstates","buffalo",42.89,-78.86,"0",NA,0
"56536",276680,"colombia","monteria",8.76,-75.89,"0",NA,0
"56535",276607,"philippines","baguio",16.43,120.57,"0",NA,0
"56534",276391,"france","strasbourg",48.58,7.76,"0",NA,0
"56533",276320,"cuba","guantanamo",20.15,-75.22,"0",NA,0
"56532",276120,"congodemrep","tshikapa",-6.41,20.77,"0",NA,0
"56531",275745,"bangladesh","bogora",24.84,89.37,"0",NA,0
"56530",275278,"ukraine","horlivka",48.3,38.05,"0",NA,0
"56529",274992,"nigeria","umuahia",5.54,7.48,"0",NA,0
"56528",274875,"india","aizawl",23.71,92.71,"0",NA,0
"56527",274770,"southafrica","richardsbay",-28.8,32.09,"0",NA,0
"56526",274702,"southafrica","witbank",-25.86,29.22,"0",NA,0
"56525",274678,"unitedkingdom","belfast",54.6,-5.93,"0",NA,0
"56524",274245,"unitedstates","lexington",38.04,-84.46,"0",NA,0
"56523",274187,"mexico","victoria",23.73,-99.13,"0",NA,0
"56522",273755,"paraguay","ciudaddeleste",-25.42,-54.63,"0",NA,0
"56521",273552,"brazil","petropolis",-22.51,-43.2,"0",NA,0
"56520",273472,"germany","aachen",50.77,6.09,"0",NA,0
"56519",273424,"japan","hakodate",41.8,140.74,"0",NA,0
"56518",273422,"china","linyi",35.08,118.33,"0",NA,0
"56517",273247,"romania","brasov",45.66,25.61,"0",NA,0
"56516",273203,"russianfederation","komsomolsk-na-amure",50.56,137,"0",NA,0
"56515",272915,"japan","kakogawa",34.77,134.84,"0",NA,0
"56514",272877,"japan","yao",34.63,135.58,"0",NA,0
"56513",272862,"germany","wiesbaden",50.08,8.23,"0",NA,0
"56512",272469,"unitedstates","saintpaul",44.95,-93.1,"0",NA,0
"56511",272079,"unitedstates","lexington-fayette",38.0497222,-84.4586111,NA,"KY",0
"56510",272046,"spain","gijon",43.53,-5.67,"0",NA,0
"56509",271539,"korearep","mokpo",34.8,126.39,"0",NA,0
"56508",271383,"egyptarabrep","kafreldauwar",31.13,30.12,"0",NA,0
"56507",271211,"china","quanwan",22.37,114.11,"0",NA,0
"56506",270831,"philippines","iligan",8.17,124.22,"0",NA,0
"56505",270696,"saudiarabia","najran",17.5,44.13,"0",NA,0
"56504",270397,"india","etawah",26.78,79.01,"0",NA,0
"56503",270277,"italy","venice",45.43,12.33,"0",NA,0
"56502",269286,"india","dewas",22.97,76.05,"0",NA,0
"56501",269225,"india","singrauli",23.84,82.27,"0",NA,0
"56500",269030,"nigeria","ikotekpene",5.19,7.71,"0",NA,0
"56499",268983,"indonesia","tasikmalaya",-7.32,108.21,"0",NA,0
"56498",268968,"india","jalna",19.85,75.88,"0",NA,0
"56497",268448,"colombia","sincelejo",9.29,-75.38,"0",NA,0
"56496",268375,"china","wuzhou",23.48,111.32,"0",NA,0
"56495",268277,"russianfederation","sterlitamak",53.63,55.95,"0",NA,0
"56494",268230,"mozambique","chimoio",-19.12,33.47,"0",NA,0
"56493",267673,"germany","gelsenkirchen",51.51,7.11,"0",NA,0
"56492",267219,"japan","tokushima",34.07,134.55,"0",NA,0
"56491",266897,"china","mianyang",31.47,104.77,"0",NA,0
"56490",266694,"azerbaijan","sumqayit",40.59,49.64,"0",NA,0
"56489",266510,"kenya","nakuru",-0.28,36.07,"0",NA,0
"56488",266494,"nigeria","ondo",7.09,4.84,"0",NA,0
"56487",266418,"israel","haifa",32.82,34.99,"0",NA,0
"56486",266391,"india","satna",24.58,80.83,"0",NA,0
"56485",266362,"brazil","riobranco",-9.98,-67.82,"0",NA,0
"56484",266259,"china","chiayi",23.48,120.43,"0",NA,0
"56483",266055,"turkey","sivas",39.75,37.02,"0",NA,0
"56482",266029,"china","zhumadian",32.97,114.05,"0",NA,0
"56481",265939,"argentina","parana",-31.74,-60.52,"0",NA,0
"56480",265932,"nigeria","damaturu",11.75,11.96,"0",NA,0
"56479",264960,"brazil","uberaba",-19.76,-47.94,"0",NA,0
"56478",264734,"sudan","al-fasir",13.63,25.35,"0",NA,0
"56477",264667,"russianfederation","petrozavodsk",61.82,34.33,"0",NA,0
"56476",264650,"mexico","oaxaca",17.07,-96.72,"0",NA,0
"56475",264235,"iranislamicrep","qarchak",35.42,51.58,"0",NA,0
"56474",264175,"sweden","malmo",55.61,13.02,"0",NA,0
"56473",264119,"china","tongliao",43.62,122.27,"0",NA,0
"56472",264099,"china","hulanergi",47.21,123.61,"0",NA,0
"56471",263762,"kazakhstan","aqtobe",50.28,57.17,"0",NA,0
"56470",263628,"india","naihati",22.91,88.43,"0",NA,0
"56469",263627,"china","yining",43.9,81.35,"0",NA,0
"56468",263547,"canada","halifax",44.67,-63.61,"0",NA,0
"56467",263416,"mexico","ensenada",31.87,-116.62,"0",NA,0
"56466",263209,"china","jining",41.04,113.09,"0",NA,0
"56465",262901,"brazil","praiagrande",-24,-46.4,"0",NA,0
"56464",262741,"nigeria","iwo",7.63,4.18,"0",NA,0
"56463",262688,"vietnam","cantho",10.03,105.78,"0",NA,0
"56462",262686,"serbia","pristina",42.65,21.17,"0",NA,0
"56461",262656,"brazil","barueri",-23.49,-46.86,"0",NA,0
"56460",262627,"iranislamicrep","sari",36.55,53.1,"0",NA,0
"56459",262235,"turkey","tarsus",36.92,34.9,"0",NA,0
"56458",262211,"india","baranagar",22.64,88.37,"0",NA,0
"56457",262145,"italy","verona",45.44,10.99,"0",NA,0
"56456",261883,"australia","wollongong",-34.42,150.87,"0",NA,0
"56455",261496,"india","durg",21.2,81.28,"0",NA,0
"56454",261424,"tanzania","morogoro",-6.82,37.66,"0",NA,0
"56453",261161,"germany","monchengladbach",51.2,6.42,"0",NA,0
"56452",260982,"ethiopia","diredawa",9.59,41.86,"0",NA,0
"56451",260653,"yemenrep","ibb",13.97,44.18,"0",NA,0
"56450",260533,"russianfederation","yoshkar-ola",56.64,47.87,"0",NA,0
"56449",260494,"mexico","santacatarina",25.67,-100.47,"0",NA,0
"56448",260484,"venezuelarb","cumana",10.45,-64.18,"0",NA,0
"56447",260452,"unitedkingdom","stoke-on-trent",53.01,-2.19,"0",NA,0
"56446",260415,"unitedstates","plano",33.05,-96.75,"0",NA,0
"56445",260245,"russianfederation","bratsk",56.3,101.71,"0",NA,0
"56444",259904,"japan","hiratsuka",35.33,139.35,"0",NA,0
"56443",259838,"india","sonipat",28.99,77.01,"0",NA,0
"56442",259723,"indonesia","bandaaceh",5.55,95.32,"0",NA,0
"56441",259518,"indonesia","pekalongan",-6.88,109.66,"0",NA,0
"56440",259506,"mexico","obregon",27.48,-109.93,"0",NA,0
"56439",259168,"germany","augsburg",48.36,10.89,"0",NA,0
"56438",259027,"china","jiujiang",29.73,115.98,"0",NA,0
"56437",258862,"brazil","vitoriadaconquista",-14.85,-40.84,"0",NA,0
"56436",258289,"brazil","varzeagrande",-15.65,-56.14,"0",NA,0
"56435",257935,"brazil","novohamburgo",-29.71,-51.14,"0",NA,0
"56434",257711,"turkey","sultanbeyli",40.92,29.3,"0",NA,0
"56433",257639,"ukraine","khmel'nyts'kyy",49.42,27,"0",NA,0
"56432",257498,"colombia","floridablanca",7.06,-73.09,"0",NA,0
"56431",257470,"spain","l'hospitaletdellobregat",41.35,2.1,"0",NA,0
"56430",257343,"india","nalasopara",19.43,72.78,"0",NA,0
"56429",257188,"nigeria","jimeta",9.28,12.46,"0",NA,0
"56428",257105,"senegal","thies",14.81,-16.93,"0",NA,0
"56427",256962,"iranislamicrep","borujerd",33.92,48.8,"0",NA,0
"56426",256812,"india","tirupati",13.63,79.41,"0",NA,0
"56425",256520,"philippines","butuan",8.93,125.52,"0",NA,0
"56424",256371,"brazil","taubate",-23.02,-45.56,"0",NA,0
"56423",256350,"china","heze",35.23,115.45,"0",NA,0
"56422",256253,"peru","juliaca",-15.5,-70.14,"0",NA,0
"56421",256229,"china","laohekou",32.39,111.66,"0",NA,0
"56420",256084,"nigeria","gombe",10.29,11.17,"0",NA,0
"56419",255646,"unitedstates","henderson",36.03,-115,"0",NA,0
"56418",254966,"russianfederation","dzerzhinsk",56.24,43.46,"0",NA,0
"56417",254960,"india","avadi",13.12,80.11,"0",NA,0
"56416",254444,"japan","yamagata",38.25,140.33,"0",NA,0
"56415",254383,"indonesia","cirebon",-6.71,108.56,"0",NA,0
"56414",254333,"peru","ica",-14.06,-75.75,"0",NA,0
"56413",254197,"chile","talcahuano",-36.74,-73.13,"0",NA,0
"56412",254188,"slovenia","ljubljana",46.06,14.51,"1",NA,1
"56411",253850,"poland","gdynia",54.52,18.53,"0",NA,0
"56410",253830,"china","ganzhou",25.95,114.93,"0",NA,0
"56409",253746,"brazil","governadorvaladares",-18.87,-41.97,"0",NA,0
"56408",253542,"china","suihua",46.63,126.98,"0",NA,0
"56407",253247,"cuba","santaclara",22.41,-79.97,"0",NA,0
"56406",253142,"brazil","santamaria",-29.69,-53.83,"0",NA,0
"56405",252874,"unitedkingdom","wolverhampton",52.59,-2.15,"0",NA,0
"56404",252761,"chile","sanbernardo",-33.6,-70.7,"0",NA,0
"56403",252702,"china","nanyang",33,112.53,"0",NA,0
"56402",252588,"syrianarabrepublic","dayraz-zawr",35.33,40.13,"0",NA,0
"56401",252538,"somalia","berbera",10.44,45,"0",NA,0
"56400",252517,"india","ozhukarai",11.94,79.77,"0",NA,0
"56399",252182,"southafrica","verwoerdburg",-25.83,28.2,"0",NA,0
"56398",252052,"iranislamicrep","gorgan",36.83,54.48,"0",NA,0
"56397",251700,"france","montpellier",43.61,3.87,"0",NA,0
"56396",251673,"mexico","nicolasromero",19.62,-99.31,"0",NA,0
"56395",251672,"thailand","udonthani",17.41,102.79,"0",NA,0
"56394",251289,"colombia","palmira",3.54,-76.3,"0",NA,0
"56393",251190,"india","hapur",28.73,77.77,"0",NA,0
"56392",251187,"brazil","voltaredonda",-22.51,-44.12,"0",NA,0
"56391",251139,"canada","oshawa",43.89,-78.86,"0",NA,0
"56390",251106,"china","wafangdian",39.62,122,"0",NA,0
"56389",250645,"saudiarabia","hafaral-batin",28.43,45.96,"0",NA,0
"56388",250081,"turkey","manisa",38.63,27.43,"0",NA,0
"56387",250058,"turkey","trabzon",41,39.71,"0",NA,0
"56386",250005,"korearep","wonju",37.35,127.94,"0",NA,0
"56385",249512,"india","bathinda",30.17,74.97,"0",NA,0
"56384",249407,"indonesia","kendari",-3.97,122.59,"0",NA,0
"56383",249390,"mexico","tehuacan",18.45,-97.38,"0",NA,0
"56382",249189,"unitedkingdom","southampton",50.91,-1.41,"0",NA,0
"56381",248899,"myanmar","bago",17.33,96.5,"0",NA,0
"56380",248385,"china","rizhao",35.43,119.45,"0",NA,0
"56379",248359,"uzbekistan","buxoro",39.77,64.42,"0",NA,0
"56378",248348,"ukraine","kirovohrad",48.5,32.26,"0",NA,0
"56377",248302,"venezuelarb","baruta",10.43,-66.88,"0",NA,0
"56376",248182,"unitedstates","norfolk",36.92,-76.24,"0",NA,0
"56375",248050,"japan","fukui",36.08,136.22,"0",NA,0
"56374",247923,"unitedkingdom","plymouth",50.38,-4.16,"0",NA,0
"56373",247915,"unitedstates","chandler",33.3,-111.87,"0",NA,0
"56372",247876,"venezuelarb","sancristobal",7.77,-72.25,"0",NA,0
"56371",247832,"china","yungkang",22.94,121.12,"0",NA,0
"56370",247815,"china","hebi",35.95,114.22,"0",NA,0
"56369",247430,"korearep","kunsan",35.99,126.71,"0",NA,0
"56368",247245,"southafrica","vanderbijlpark",-26.69,27.82,"0",NA,0
"56367",247236,"bangladesh","jessor",23.17,89.21,"0",NA,0
"56366",247146,"poland","czestochowa",50.81,19.13,"0",NA,0
"56365",247063,"india","bihar",25.21,85.52,"0",NA,0
"56364",246817,"ukraine","dniprodzerzhyns'k",48.5,34.62,"0",NA,0
"56363",246814,"unitedkingdom","reading",51.45,-0.98,"0",NA,0
"56362",246763,"russianfederation","nizhnevartovsk",60.93,76.57,"0",NA,0
"56361",246595,"japan","mito",36.38,140.47,"0",NA,0
"56360",246515,"argentina","neuquen",-38.95,-68.06,"0",NA,0
"56359",246484,"philippines","batangas",13.78,121.02,"0",NA,0
"56358",246419,"ghana","takoradi",4.89,-1.76,"0",NA,0
"56357",246264,"portugal","porto",41.15,-8.62,"0",NA,0
"56356",246245,"tunisia","aryanah",36.88,10.18,"0",NA,0
"56355",246211,"philippines","lapu-lapu",10.33,123.96,"0",NA,0
"56354",246015,"indonesia","cibadak",-6.89,106.78,"0",NA,0
"56353",245804,"unitedstates","saintpetersburg",27.76,-82.64,"0",NA,0
"56352",245636,"somalia","kismayo",-0.35,42.53,"0",NA,0
"56351",245615,"unitedkingdom","nottingham",52.97,-1.18,"0",NA,0
"56350",245612,"jordan","ar-russayfah",32.02,36.02,"0",NA,0
"56349",245488,"russianfederation","orsk",51.21,58.63,"0",NA,0
"56348",245404,"india","anantapur",14.7,77.59,"0",NA,0
"56347",245341,"russianfederation","novorossiysk",44.72,37.77,"0",NA,0
"56346",245259,"oman","as-sib",23.67,58.19,"0",NA,1
"56345",245013,"india","ramagundam",18.8,79.45,"0",NA,0
"56344",244766,"italy","messina",38.19,15.55,"0",NA,0
"56343",244510,"germany","chemnitz",50.83,12.92,"0",NA,0
"56342",244494,"japan","shimonoseki",33.96,130.94,"0",NA,0
"56341",244421,"brazil","gravatai",-29.95,-50.99,"0",NA,0
"56340",244307,"germany","brunswick",52.27,10.51,"0",NA,0
"56339",244300,"india","farrukhabad",27.4,79.57,"0",NA,0
"56338",244261,"brazil","boavista",2.83,-60.66,"0",NA,0
"56337",244044,"india","raurkelaciviltownship",22.25,84.86,"0",NA,0
"56336",244009,"cameroon","ngaoundere",7.32,13.58,"0",NA,0
"56335",244003,"japan","neyagawa",34.79,135.64,"0",NA,0
"56334",243690,"egyptarabrep","aswan",24.08,32.92,"0",NA,0
"56333",243612,"egyptarabrep","qena",26.15,32.72,"0",NA,0
"56332",243411,"pakistan","deraghazikhan",30.06,70.64,"0",NA,0
"56331",243310,"china","yibin",28.77,104.57,"0",NA,0
"56330",243151,"pakistan","wah",33.77,72.75,"0",NA,0
"56329",243088,"spain","acoruna",43.33,-8.42,"0",NA,0
"56328",243054,"colombia","buenaventura",3.89,-77.04,"0",NA,0
"56327",242674,"turkey","balikesir",39.65,27.88,"0",NA,0
"56326",242379,"china","xiantao",30.38,113.45,"0",NA,0
"56325",242179,"malaysia","selayangbaru",3.27,101.65,"0",NA,0
"56324",241943,"malaysia","miri",4.4,113.97,"0",NA,0
"56323",241868,"russianfederation","angarsk",52.57,103.91,"0",NA,0
"56322",241624,"myanmar","pathein",16.78,94.73,"0",NA,0
"56321",241179,"japan","fuji",35.17,138.69,"0",NA,0
"56320",241122,"india","gandhinagar",23.3,72.63,"0",NA,0
"56319",241072,"unitedstates","louisville",38.22,-85.74,"0",NA,0
"56318",241049,"japan","takasaki",36.33,139.02,"0",NA,0
"56317",240950,"bangladesh","brahmanbariya",23.97,91.1,"0",NA,0
"56316",240854,"brazil","saojosedospinhais",-25.57,-49.18,"0",NA,0
"56315",240636,"india","ratlam",23.35,75.03,"0",NA,0
"56314",240581,"malaysia","sungaipetani",5.65,100.48,"0",NA,0
"56313",239953,"chile","temuco",-38.73,-72.58,"0",NA,0
"56312",239896,"indonesia","majalaya",-7.05,107.76,"0",NA,0
"56311",239574,"mexico","uruapan",19.42,-102.07,"0",NA,0
"56310",239470,"india","northdumdum",22.64,88.41,"0",NA,0
"56309",239280,"brazil","caruaru",-8.28,-35.98,"0",NA,0
"56308",238686,"china","yuci",37.68,112.73,"0",NA,0
"56307",238605,"unitedarabemirates","'ajman",25.42,55.43,"0",NA,0
"56306",238554,"japan","kurume",33.31,130.51,"0",NA,0
"56305",238532,"japan","hachinohe",40.52,141.53,"0",NA,0
"56304",238199,"benin","portonovo",6.48,2.63,"1",NA,0
"56303",237988,"turkmenistan","turkmenabat",39.1,63.57,"0",NA,0
"56302",237713,"ukraine","ternopil'",49.55,25.58,"0",NA,0
"56301",237592,"spain","granada",37.17,-3.59,"0",NA,0
"56300",237520,"korearep","sunchon",34.95,127.49,"0",NA,0
"56299",237443,"germany","krefeld",51.33,6.55,"0",NA,0
"56298",237390,"russianfederation","nizhnekamsk",55.64,51.82,"0",NA,0
"56297",237343,"indonesia","binjai",3.6,98.48,"0",NA,0
"56296",237325,"indonesia","tegal",-6.86,109.13,"0",NA,0
"56295",237250,"india","ganganagar",29.93,73.86,"0",NA,0
"56294",237125,"unitedstates","jerseycity",40.71,-74.06,"0",NA,0
"56293",236878,"guyana","georgetown",6.79,-58.16,"1",NA,1
"56292",236777,"japan","sasebo",33.16,129.72,"0",NA,0
"56291",236684,"slovakrepublic","kosice",48.73,21.26,"0",NA,0
"56290",236594,"paraguay","sanlorenzo",-25.34,-57.52,"0",NA,0
"56289",236473,"pakistan","nawabshah",26.24,68.4,"0",NA,0
"56288",236245,"unitedkingdom","derby",52.92,-1.5,"0",NA,0
"56287",236106,"vietnam","rachgia",10.02,105.08,"0",NA,0
"56286",235953,"china","linfen",36.08,111.52,"0",NA,0
"56285",235942,"india","bharatpur",27.23,77.49,"0",NA,0
"56284",235887,"brazil","sumare",-22.8,-47.29,"0",NA,0
"56283",235604,"philippines","lucena",13.95,121.6,"0",NA,0
"56282",235568,"pakistan","mingaora",34.78,72.36,"0",NA,0
"56281",235437,"southafrica","uitenhage",-33.76,25.39,"0",NA,0
"56280",235325,"india","karimnagar",18.45,79.13,"0",NA,0
"56279",235306,"uzbekistan","nukus",42.47,59.61,"0",NA,0
"56278",235192,"ukraine","chernivtsi",48.3,25.93,"0",NA,0
"56277",234922,"cameroon","bertoua",4.58,13.68,"0",NA,0
"56276",234916,"iranislamicrep","sabzevar",36.22,57.63,"0",NA,0
"56275",234649,"nigeria","gusau",12.17,6.66,"0",NA,0
"56274",234600,"indonesia","kediri",-7.81,112.01,"0",NA,0
"56273",234464,"france","lille",50.64,3.07,"0",NA,0
"56272",234086,"france","bordeaux",44.84,-0.58,"0",NA,0
"56271",234034,"kyrgyzrepublic","os",40.54,72.79,"0",NA,0
"56270",234015,"turkey","adiyaman",37.77,38.28,"0",NA,0
"56269",233932,"nigeria","mubi",10.27,13.27,"0",NA,0
"56268",233850,"japan","chigasaki",35.33,139.41,"0",NA,0
"56267",233651,"lebanon","tarabulusas-sam",34.43,35.87,"0",NA,0
"56266",233419,"india","tiruvottiyur",13.16,80.29,"0",NA,0
"56265",233342,"unitedstates","greensboro",36.08,-79.83,"0",NA,0
"56264",233287,"angola","huambo",-12.76,15.73,"0",NA,0
"56263",233111,"belgium","gent",51.05,3.72,"0",NA,0
"56262",233085,"nigeria","ikire",7.34,4.18,"0",NA,0
"56261",233006,"mozambique","nacala",-14.56,40.68,"0",NA,0
"56260",232899,"kazakhstan","oral",51,51,"0",NA,0
"56259",232818,"russianfederation","zelenograd",55.94,37.29,"0",NA,0
"56258",232811,"japan","soka",35.82,139.79,"0",NA,0
"56257",232669,"bolivia","sucre",-19.06,-65.26,"1",NA,0
"56256",232492,"ukraine","kremenchuk",49.07,33.42,"0",NA,0
"56255",232422,"germany","kiel",54.32,10.12,"0",NA,0
"56254",232419,"bosniaandherzegovina","banjaluka",44.78,17.19,"0",NA,0
"56253",232369,"brazil","ipatinga",-19.48,-42.52,"0",NA,0
"56252",232326,"mexico","gomezpalacio",25.57,-103.5,"0",NA,0
"56251",232293,"finland","espoo",60.21,24.66,"0",NA,0
"56250",232169,"iranislamicrep","nazarabad",35.95,50.6,"0",NA,0
"56249",232119,"china","huanggang",23.68,117,"0",NA,0
"56248",231959,"chile","iquique",-20.23,-70.14,"0",NA,0
"56247",231597,"japan","atsugi",35.45,139.36,"0",NA,0
"56246",231573,"mexico","coatzacoalcos",18.14,-94.42,"0",NA,0
"56245",231519,"bahamasthe","nassau",25.06,-77.33,"1",NA,1
"56244",231379,"iranislamicrep","neyshabur",36.22,58.82,"0",NA,0
"56243",231233,"india","raichur",16.21,77.35,"0",NA,0
"56242",231149,"kazakhstan","qostanay",53.22,63.63,"0",NA,0
"56241",231147,"unitedstates","fortwayne",41.07,-85.14,"0",NA,0
"56240",230949,"unitedstates","scottsdale",33.69,-111.87,"0",NA,0
"56239",230842,"russianfederation","staryyoskol",51.3,37.84,"0",NA,0
"56238",230369,"tanzania","tanga",-5.07,39.09,"0",NA,0
"56237",230136,"russianfederation","syktyvkar",61.67,50.81,"0",NA,0
"56236",230040,"brazil","juazeirodonorte",-7.21,-39.32,"0",NA,0
"56235",229730,"egyptarabrep","menia",28.09,30.75,"0",NA,0
"56234",229624,"egyptarabrep","damanhoor",31.04,30.47,"0",NA,0
"56233",229300,"unitedstates","birmingham",33.53,-86.8,"0",NA,0
"56232",229117,"china","liaocheng",36.43,115.97,"0",NA,0
"56231",228825,"india","ara",25.56,84.66,"0",NA,0
"56230",228793,"india","pondicherry",11.94,79.83,"0",NA,0
"56229",228789,"iranislamicrep","najafabad",32.67,51.35,"0",NA,0
"56228",228764,"denmark","arhus",56.16,10.21,"0",NA,0
"56227",228638,"india","karnal",29.69,76.97,"0",NA,0
"56226",228506,"philippines","cabanatuan",15.5,120.97,"0",NA,0
"56225",228110,"spain","santacruzdetenerife",28.47,-16.25,"0",NA,0
"56224",227943,"algeria","satif",36.19,5.41,"0",NA,0
"56223",227818,"kenya","eldoret",0.52,35.27,"0",NA,0
"56222",227758,"china","tianmen",30.66,113.16,"0",NA,0
"56221",227565,"china","ranghulu",46.65,124.86,"0",NA,0
"56220",227481,"india","ulubaria",22.47,88.11,"0",NA,0
"56219",227468,"romania","ploiesti",44.94,26.03,"0",NA,0
"56218",227455,"argentina","formosa",-26.18,-58.18,"0",NA,0
"56217",227271,"india","bommanahalli",13.01,77.63,"0",NA,0
"56216",227181,"indonesia","purwakarta",-6.55,107.43,"0",NA,0
"56215",227180,"india","raurkela",22.24,84.81,"0",NA,0
"56214",227178,"china","changhwa",24.08,120.52,"0",NA,0
"56213",227042,"brazil","laurodefreitas",-12.91,-38.35,"0",NA,0
"56212",226905,"uzbekistan","qarshi",38.87,65.8,"0",NA,0
"56211",226801,"brazil","colombo",-25.29,-49.24,"0",NA,0
"56210",226732,"china","haibowan",39.66,106.8,"0",NA,0
"56209",226693,"congodemrep","bukavu",-2.51,28.84,"0",NA,0
"56208",226550,"turkey","esenyurt",41.03,28.67,"0",NA,0
"56207",226542,"dominicanrepublic","sanpedrodemacoris",18.46,-69.31,"0",NA,0
"56206",226326,"pakistan","okara",30.81,73.45,"0",NA,0
"56205",226114,"germany","magdeburg",52.13,11.62,"0",NA,0
"56204",225921,"poland","radom",51.4,21.16,"0",NA,0
"56203",225858,"brazil","embu",-23.64,-46.84,"0",NA,0
"56202",225847,"philippines","binangonan",14.48,121.19,"0",NA,0
"56201",225814,"spain","vitoria",42.85,-2.67,"0",NA,0
"56200",225694,"poland","sosnowiec",50.28,19.12,"0",NA,0
"56199",225569,"sudan","ad-du'ayn",11.43,26.16,"0",NA,0
